id,hotelid,hotelname,address,city,country,zipcode,propertytype,starrating,latitude,longitude,Source,url,curr
46406,1771651,Mediteran Bungalow Galeb,Vukovarska 7,Omis,Croatia,21310,Holiday parks,4,43.44012441,16.68250496,2,https://www.booking.com/hotel/hr/bungalow-luxury-mobile-homes-omis.en-gb.html,EUR
46407,177167,Hotel Polonia,Plac Teatralny 5,Torun,Poland,,Hotels,3,53.0123291,18.60379982,5,https://www.agoda.com/en-gb/hotel-polonia/hotel/torun-pl.html,EUR
46408,1771675,Rifugio Sass Bece,"Belvedere del Pordoi,1",Canazei,Italy,38032,Hotels,3,46.4779196,11.81334972,2,http://www.booking.com/hotel/it/rifugio-sass-bece.en-gb.html,EUR
46409,177168,Madalena Hotel,Mykonos,Mykonos,Greece,84600,Hotels,3,37.45231628,25.32984924,5,https://www.agoda.com/en-gb/madalena-hotel/hotel/mykonos-gr.html,EUR
46410,1771718,Pension Morenfeld,Mair im Korn Strasse 2,Lagundo,Italy,39022,Hotels,3,46.68277953,11.13173599,2,http://www.booking.com/hotel/it/pension-morenfeld-lagundo.en-gb.html,EUR
46411,1771733,Boutique Hotel Three Lilies,Narodni 3,Frantiskovy Lazne,Czech Republic,,Hotels,4,50.11849563,12.34979035,2,http://www.booking.com/hotel/cz/three-lilies.en-gb.html,EUR
46412,177175,MPM Hotel Sport,"100, Pirin Str",Bansko,Bulgaria,2770,Hotels,4,41.82478853,23.47764373,2,http://www.booking.com/hotel/bg/sport.en-gb.html,BGN
46413,177176,Family Hotel Santo Bansko,6 St.Ivan Rilski Str,Bansko,Bulgaria,2770,Hotels,3,41.82960333,23.48144978,2,http://www.booking.com/hotel/bg/santo-bansko.en-gb.html,BGN
46414,177179,Villas Jagoda & Malina,Borovets,Borovets,Bulgaria,2010,Holiday parks,3,42.27528449,23.61851603,2,http://www.booking.com/hotel/bg/villa-settlements.en-gb.html,BGN
46415,177183,Hotel Silver,"10,Lozengrad",Sozopol,Bulgaria,8130,Hotels,3,42.41795597,27.69937098,2,http://www.booking.com/hotel/bg/silver-sozopol.en-gb.html,BGN
46416,177185,Hotel Moura,Borovets,Borovets,Bulgaria,2010,Hotels,3,42.26819899,23.60524178,2,http://www.booking.com/hotel/bg/moura.en-gb.html,BGN
46417,177185,Rena's Suites - Adults Only,Fira,Santorini,Greece,84700,Hotels,3,36.42250443,25.43520546,5,https://www.agoda.com/en-gb/rena-s-suites-adults-only_2/hotel/santorini-gr.html,EUR
46418,177186,Hotel Seasons,Tsigov Chark,Tsigov Chark,Bulgaria,4580,Hotels,3,41.94797259,24.15421486,2,http://www.booking.com/hotel/bg/seasons-batak.en-gb.html,BGN
46419,177187,Breza Hotel,Borovets,Borovets,Bulgaria,2010,Hotels,3,42.26496956,23.60353321,2,http://www.booking.com/hotel/bg/breza.en-gb.html,BGN
46420,177190,Nautica Bay Hotel,Main Street,Porto Cheli,Greece,21061,Hotels,3,37.32395172,23.15633011,5,https://www.agoda.com/en-gb/nautica-bay-hotel/hotel/porto-cheli-gr.html,EUR
46421,177192,Rosslyn Dimyat Hotel Varna,111 Kniaz Boris I Blvd.,Varna City,Bulgaria,9002,Hotels,4,43.20959414,27.9287374,2,http://www.booking.com/hotel/bg/swiss-belhotel-varna.en-gb.html,BGN
46422,177193,Casa Karina Bansko - Half Board & All Inclusive,5 Kralev Dvor Str.,Bansko,Bulgaria,2770,Hotels,4,41.8249884,23.47923428,2,http://www.booking.com/hotel/bg/casa-karina.en-gb.html,BGN
46423,1771941,Le Trente,30 rue Clairaut,Paris,France,75017,Hotels,3,48.88843115,2.31956342,2,http://www.booking.com/hotel/fr/le-trente.en-gb.html,EUR
46424,177196,Semeli Hotel - Adults Only,Main Street,Corfu Island,Greece,49081,Hotels,2,39.788185,19.796108,5,https://www.agoda.com/en-gb/semeli-hotel-adults-only/hotel/corfu-island-gr.html,EUR
46425,1771964,Camping La Promenade Sweet Flower,La Promenade,Montjean-sur-Loire,France,49570,Campsites,3,47.3918431,-0.87038464,2,http://www.booking.com/hotel/fr/sweet-flower-chalet.en-gb.html,EUR
46426,177197,Hotel Karyatides,Agia Marina,Aegina,Greece,18010,Hotels,2,37.74383163,23.53577995,5,https://www.agoda.com/en-gb/hotel-karyatides/hotel/aegina-gr.html,EUR
46427,1771971,Hotel Liliana Andora,Via del Poggio 23,Marina dAndora,Italy,17051,Hotels,3,43.95129879,8.13864808,2,https://www.booking.com/hotel/it/liliana-marina-d-andora.en-gb.html,EUR
46428,177201,Futura Hotel,Main Street,Crete Island,Greece,73100,Hotels,2,35.52149963,23.85106087,5,https://www.agoda.com/en-gb/futura-hotel/hotel/crete-island-gr.html,EUR
46429,1772036,At Yetty's Place Vintage Apartment Hotel,Edisonstraat 144,Eindhoven,Netherlands,,Hotels,3,51.45187336,5.46156205,2,http://www.booking.com/hotel/nl/at-yetty-39-s-place-vintage-apartment.en-gb.html,EUR
46430,17721,Hotel Ai Due Principi,Fondamenta DellOsmarin Castello 4972,Venice,Italy,30122,Hotels,4,45.43557977,12.34343469,2,http://www.booking.com/hotel/it/ai-due-principi.en-gb.html,EUR
46431,177220,The A Hotel by Mykonos Arhontiko,Mykonos,Mykonos,Greece,84600,Hotels,4,37.45275116,25.34082413,5,https://www.agoda.com/en-gb/the-a-hotel-by-mykonos-arhontiko/hotel/mykonos-gr.html,EUR
46432,1772277,Genusshotel Fichtenhof,Auschulweg 3,Grossarl,Austria,5611,Hotels,4,47.2774763,13.2159534,2,http://www.booking.com/hotel/at/fichtenhof-grossarl.en-gb.html,EUR
46433,177228,Amazing View Hotel Apartments,Main Street,Mykonos,Greece,84600,Hotels,3,37.47145081,25.32036972,5,https://www.agoda.com/amazing-view-hotel-apartments/hotel/mykonos-gr.html,EUR
46434,17723,Hotel Legnano,Via Luigi Galvani 15,Legnano,Italy,20025,Hotels,2,45.60185034,8.92062217,2,http://www.booking.com/hotel/it/legnano.en-gb.html,EUR
46435,177231,Porto Mykonos Hotel,"Old Port, Mykonos Town",Mykonos,Greece,84600,Hotels,4,37.4517746,25.3295536,5,https://www.agoda.com/en-gb/porto-mykonos-hotel/hotel/mykonos-gr.html,EUR
46436,177232,Dimitra Hotel,Main Street,Naxos Island,Greece,84300,Hotels,2,37.07492065,25.35276985,5,https://www.agoda.com/en-gb/dimitra-hotel/hotel/naxos-island-gr.html,EUR
46437,177233,Dwor Kombornia Hotel&SPA,Kombornia 1,Kombornia,Poland,,Hotels,4,49.70147461,21.86418772,2,http://www.booking.com/hotel/pl/dwor-kombornia-spa.en-gb.html,PLN
46438,177234,Elounda Ilion Hotel,Main Street,Crete Island,Greece,72053,Hotels,4,35.24269867,25.72868919,5,https://www.agoda.com/en-gb/elounda-ilion-hotel/hotel/crete-island-gr.html,EUR
46439,177237,Matala Bay Hotel & Apartments,Main Street,Crete Island,Greece,,Hotels,3,34.9953804,24.75399017,5,https://www.agoda.com/en-gb/matala-bay-hotel-apartments/hotel/crete-island-gr.html,EUR
46440,17724,Favignana Hotel,Via Badia 8,Favignana,Italy,91023,Hotels,3,37.92935353,12.33368218,2,http://www.booking.com/hotel/it/favignanahotel.en-gb.html,EUR
46441,177240,Maistrali Hotel,Tragaki Beach,Zakynthos Island,Greece,29100,Hotels,2,37.8269577,20.8415699,5,https://www.agoda.com/en-gb/maistrali-hotel/hotel/zakynthos-island-gr.html,EUR
46442,177242,Margarita Hotel,Main Street,Santorini,Greece,84700,Hotels,2,36.42527008,25.42992973,5,https://www.agoda.com/en-gb/margarita-hotel/hotel/santorini-gr.html,EUR
46443,177253,Elkaza Villa,Fira,Santorini,Greece,84700,Resorts,3,36.42450814,25.43195108,5,https://www.agoda.com/en-gb/elkaza-villa/hotel/santorini-gr.html,EUR
46444,177255,Sellada Beach Hotel,Perissa,Santorini,Greece,84703,Hotels,4,36.3534317,25.47214508,5,https://www.agoda.com/en-gb/sellada-beach-hotel/hotel/santorini-gr.html,EUR
46445,177257,Hotel Stella Di Mare,Route Des Sanguinaires,Ajaccio,France,20000,Hotels,3,41.90765692,8.65996912,2,http://www.booking.com/hotel/fr/stella-di-mare.en-gb.html,EUR
46446,177259,Hotel Maryo,"Sondelor Street, no. 74",Ploiesti,Romania,100317,Hotels,3,44.92253035,26.00740671,2,http://www.booking.com/hotel/ro/maryo.en-gb.html,RON
46447,17726,Hotel Motel Visconteo,Via Strada Cerca snc,Binasco,Italy,20082,Hotels,4,45.33814655,9.10315305,2,http://www.booking.com/hotel/it/visconteo.en-gb.html,EUR
46448,177267,Yialos Beach Hotel,Main Street,Ios Chora,Greece,84001,Hotels,3,36.724705,25.275148,5,https://www.agoda.com/en-gb/yialos-beach-hotel/hotel/ios-chora-gr.html,EUR
46449,177273,Sofia Hotel,"Firostefani Square, Firostefani",Santorini,Greece,84700,Hotels,2,36.42565918,25.42872047,5,https://www.agoda.com/en-gb/sofia-hotel/hotel/santorini-gr.html,EUR
46450,1772763,Hugo's Boutique Hotel - Adults Only,St.Georges Road Paceville,St Julians,Malta,,Hotels,4,35.92416946,14.48896265,2,http://www.booking.com/hotel/mt/hugo-39-s-boutique.en-gb.html,EUR
46451,177281,Manos Small World Hotel,Firostefani,Santorini,Greece,84700,Hotels,4,36.42565918,25.42870712,5,https://www.agoda.com/en-gb/manos-small-world-hotel/hotel/santorini-gr.html,EUR
46452,177286,Blue Diamond Bay,Main street,Santorini,Greece,84703,Hotels,4,36.34806442,25.46705437,5,https://www.agoda.com/en-gb/blue-diamond-bay/hotel/santorini-gr.html,EUR
46453,17729,Anassa Deluxe Suites,Main Street,Kamari,Greece,84700,Hotels,4,36.37636383,25.4832226,2,http://www.booking.com/hotel/gr/anassa-deluxe-suites.en-gb.html,EUR
46454,177293,Hotel Corte Rosada Resort & Spa,"Via Porto Conte, 77",Porto Conte,Italy,7041,Hotels,4,40.59681443,8.21906626,2,http://www.booking.com/hotel/it/corte-rosada.en-gb.html,EUR
46455,177293,Galatia Villas Hotel,Fira Santorini,Santorini,Greece,84700,Hotels,3,36.42351532,25.43462372,5,https://www.agoda.com/en-gb/galatia-villas-hotel/hotel/santorini-gr.html,EUR
46456,177298,Hotel Jagerklause,Pfaffenbach 45,Schmalkalden,Germany,98574,Hotels,3,50.73598322,10.44472575,2,http://www.booking.com/hotel/de/jagerklause-schmalkalden.en-gb.html,EUR
46457,177306,Hotel Paris Nord,"4, rue de Dunkerque",Paris,France,75010,Hotels,2,48.8807829,2.3514732,2,http://www.booking.com/hotel/fr/paris-nord.en-gb.html,EUR
46458,177306,Hotel Olympia,Paralia Finika,Syros,Greece,84100,Hotels,2,37.39765167,24.88081932,5,https://www.agoda.com/en-gb/hotel-olympia/hotel/syros-gr.html,EUR
46459,177308,Aegean Houses,Lampi Area,Kos Island,Greece,,Hotels,4,36.90734863,27.27985001,5,https://www.agoda.com/en-gb/aegean-houses/hotel/kos-island-gr.html,EUR
46460,177310,L'Hostellerie des Lacs,12 Avenue Du Lac,Monclar-de-Quercy,France,82230,Hotels,2,43.96645344,1.58654273,2,http://www.booking.com/hotel/fr/hostellerie-des-lacs.en-gb.html,EUR
46461,177321,Hotel Clorinda,Via Laura 216,Paestum,Italy,84047,Hotels,4,40.43866752,14.98219728,2,http://www.booking.com/hotel/it/clorinda.en-gb.html,EUR
46462,1773218,Hotel Elisa,Via Marina 20,Peschici,Italy,71010,Hotels,3,41.94933598,16.01212106,2,http://www.booking.com/hotel/it/elisa-peschici63.en-gb.html,EUR
46463,1773227,Albergo Franzone,Piazza Umberto I 23,Tovo San Giacomo,Italy,17020,Hotels,2,44.17631319,8.26839145,2,http://www.booking.com/hotel/it/albergo-franzone-tovo-san-giacomo15.en-gb.html,EUR
46464,177326,Hotel Gardenia,Via Europa Unita 78,Cermenate,Italy,22072,Hotels,3,45.69452371,9.07219112,2,http://www.booking.com/hotel/it/gardenia-cermenate.en-gb.html,EUR
46465,1773282,Hotel Il Pino,"Via della Repubblica, 19",San Vincenzo,Italy,57027,Hotels,3,43.0870042,10.539045,2,http://www.booking.com/hotel/it/il-pino-san-vincenzo.en-gb.html,EUR
46466,177329,Chateau de Pourtales,161 Rue Melanie,Strasbourg,France,67000,Hotels,3,48.60808508,7.80001536,2,http://www.booking.com/hotel/fr/chateau-de-pourtales.en-gb.html,EUR
46467,177330,Hotel Argegno,Via Milano 14,Argegno,Italy,22010,Hotels,3,45.94285602,9.12811786,2,http://www.booking.com/hotel/it/argegno.en-gb.html,EUR
46468,177331,Hotel Villa Tedaldi,Loc. Tschemenoal 12,Gressoney-Saint-Jean,Italy,11025,Hotels,2,45.77620762,7.82708287,2,http://www.booking.com/hotel/it/villa-tedaldi.en-gb.html,EUR
46469,177332,Hotel & Restaurant Waldschloss,Schardinger Strasse 66,Passau,Germany,94032,Hotels,4,48.55601938,13.47420841,2,http://www.booking.com/hotel/de/restaurant-waldschloss.en-gb.html,EUR
46470,1773336,Hotel Du Sauvage Grindelwald,Tuftbach 4,Grindelwald,Switzerland,3818,Hotels,3,46.62892215,8.02378482,2,http://www.booking.com/hotel/ch/aparthotel-sauvage-grindelwald-grindelwald.en-gb.html,CHF
46471,1773354,Hotel Faber,"Viale Lecce, 6",Rimini,Italy,47924,Hotels,3,44.03919371,12.61063813,2,http://www.booking.com/hotel/it/faber-rimini5.en-gb.html,EUR
46472,177337,Hotel Martinelli,Via del Car 4,Ronzo Chienis,Italy,38060,Hotels,2,45.89119032,10.95203996,2,http://www.booking.com/hotel/it/martinelli.en-gb.html,EUR
46473,177338,Corona Dolomites Hotel,Via Dossi 6,Andalo,Italy,38010,Hotels,4,46.16534827,11.0015282,2,http://www.booking.com/hotel/it/corona-andalo.en-gb.html,EUR
46474,177342,Seiser Alm Plaza,Compatsch 33,Alpe di Siusi,Italy,39040,Hotels,3,46.54058527,11.61758065,2,http://www.booking.com/hotel/it/seiser-alm-plaza.en-gb.html,EUR
46475,177345,Hotel Tubris,Hugo Von Tauferstrasse 9,Campo Tures,Italy,39032,Hotels,4,46.9188007,11.95493817,2,http://www.booking.com/hotel/it/tubris.en-gb.html,EUR
46476,17735,Loetje Gorssel,Hoofdstraat 26,Gorssel,Netherlands,,Hotels,4,52.19895852,6.20051086,2,http://www.booking.com/hotel/nl/loetje-gorssel.en-gb.html,EUR
46477,177350,Scandic Odense,Hvidkaervej 25,Odense,Denmark,5250,Hotels,3,55.36068244,10.34064934,2,http://www.booking.com/hotel/dk/scandic-odense.en-gb.html,DKK
46478,177351,s Lands Welvaren,Kaai 4,Sluis,Netherlands,,Hotels,2,51.27363968,3.441240072,5,https://www.agoda.com/en-gb/s-lands-welvaren/hotel/sluis-nl.html,EUR
46479,177352,Hotel de Burg,Ooststraat 5,Domburg,Netherlands,,Hotels,2,51.56380081,3.497790098,5,https://www.agoda.com/en-gb/hotel-de-burg/hotel/domburg-nl.html,EUR
46480,177355,Lina Hotel,13 Slivnitsa str.,Bansko,Bulgaria,2770,Hotels,3,41.83217548,23.49366188,2,http://www.booking.com/hotel/bg/lina.en-gb.html,BGN
46481,177359,Albergo Fiorenza,Via Trento 145,Salerno,Italy,84131,Hotels,3,40.65926674,14.80063856,2,http://www.booking.com/hotel/it/albergo-fiorenza.en-gb.html,EUR
46482,177361,Hotel Dragului,Mihail Saulescu nr.28,Predeal,Romania,505300,Hotels,3,45.50315402,25.5745592,2,http://www.booking.com/hotel/ro/dragului.en-gb.html,RON
46483,177362,Musciara Siracusa Resort,Riviera Dionisio Il Grande 42,Siracusa,Italy,96100,Hotels,3,37.0707737,15.29284805,2,http://www.booking.com/hotel/it/musciara-siracusa-resort.en-gb.html,EUR
46484,1773625,Hotel Monge,55 rue Monge,Paris,France,75005,Hotels,4,48.84480905,2.35244,2,http://www.booking.com/hotel/fr/monge-paris7.en-gb.html,EUR
46485,177365,Hotel Pegasus-Adult Friendly,Dimitriadi 12,Limenas,Greece,64004,Hotels,3,40.77812651,24.70746607,2,http://www.booking.com/hotel/gr/pegasus-thassos.en-gb.html,EUR
46486,177367,Malia Mare Hotel,"10, Dimokratias St.",Malia,Greece,70007,Hotels,3,35.28488782,25.46245426,2,http://www.booking.com/hotel/gr/malia-mare.en-gb.html,EUR
46487,177367,Hotel Alpenrose,Postfach,Riederalp,Switzerland,3987,Hotels,3,46.37939072,8.035770416,5,https://www.agoda.com/en-gb/hotel-alpenrose/hotel/riederalp-ch.html,CHF
46488,177371,Christakis,Main Road Corfu- Sidariou,Corfu Island,Greece,49081,Hotels,2,39.79169083,19.69944,5,https://www.agoda.com/en-gb/christakis/hotel/corfu-island-gr.html,EUR
46489,177373,Frederik VI's Hotel,Rugaardsvej 590,Odense,Denmark,5210,Hotels,4,55.42178654,10.25741369,2,http://www.booking.com/hotel/dk/frederik-vi.en-gb.html,DKK
46490,177378,Hotel Belvedere,Via Valassina 31,Bellagio,Italy,22021,Hotels,4,45.98291598,9.26171601,2,http://www.booking.com/hotel/it/belvedere-bellagio.en-gb.html,EUR
46491,177381,Hotel Resort Villa Luisa & Spa,Via Palazzo 1,San Felice del Benaco,Italy,25010,Hotels,4,45.59265475,10.55302382,2,http://www.booking.com/hotel/it/villa-luisa-resort.en-gb.html,EUR
46492,177388,Hotel Anna Palace,4 Kniajeska Str.,Ruse,Bulgaria,7000,Hotels,4,43.84755619,25.94655007,2,http://www.booking.com/hotel/bg/anna-palace.en-gb.html,BGN
46493,177389,Hotel Tirreno,Via Aurelia 2,Spotorno,Italy,17028,Hotels,4,44.22304505,8.41560364,2,http://www.booking.com/hotel/it/tirreno-spotorno.en-gb.html,EUR
46494,177390,Hotel Elite,Metzgergasse 9/11,St. Gallen,Switzerland,9004,Hotels,2,47.42673359,9.37549397,2,http://www.booking.com/hotel/ch/elite-st-gallen.en-gb.html,CHF
46495,177391,Maison Del Magra,Via del Pilota 25,Ameglia,Italy,19030,Hotels,3,44.05244939,9.98606667,2,http://www.booking.com/hotel/it/maison-del-magra.en-gb.html,EUR
46496,177392,Hotel San Teodoro,Localita' Badualga,San Teodoro,Italy,8020,Hotels,4,40.76715851,9.654722214,5,https://www.agoda.com/en-gb/hotel-san-teodoro/hotel/san-teodoro-it.html,EUR
46497,177394,Hotel Coral,Str Principala Nr 450,Satu Mare,Romania,447130,Hotels,3,47.83656443,22.81922053,2,http://www.booking.com/hotel/ro/coral.en-gb.html,RON
46498,1773948,Hotel F6,Fabianinkatu 6,Helsinki,Finland,130,Hotels,4,60.166233,24.9494427,2,http://www.booking.com/hotel/fi/f6.en-gb.html,EUR
46499,177395,Hotel Tauernglockl,Romerstrasse 62,Obertauern,Austria,5562,Hotels,4,47.24734588,13.5595268,2,http://www.booking.com/hotel/at/hotel-tauernglockl.en-gb.html,EUR
46500,1773967,Family Hotel Four Seasons Tsarevo,40 Han Asparuh Str.,Tsarevo,Bulgaria,8260,Hotels,2,42.17025815,27.84940737,2,http://www.booking.com/hotel/bg/four-seasons.en-gb.html,BGN
46501,177397,Hotel La Jetee,23 Quai Clemenceau,Saint-Martin-de-Re,France,17410,Hotels,3,46.20567591,-1.36631191,2,http://www.booking.com/hotel/fr/la-jetee.en-gb.html,EUR
46502,177398,Hotel Continental,Strada Cuza Voda nr 4,Iasi,Romania,700100,Hotels,2,47.16523084,27.58187145,2,http://www.booking.com/hotel/ro/continental-iasi.en-gb.html,RON
46503,177401,Hotel Solaria,Ringstrasse 6,Obertauern,Austria,5562,Hotels,3,47.24992768,13.55482757,2,http://www.booking.com/hotel/at/solaria-obertauern.en-gb.html,EUR
46504,177403,Hotel Edelweiss,Feichten 170,Kaunertal,Austria,6524,Hotels,3,47.02851713,10.74448407,2,http://www.booking.com/hotel/at/edelweiss-kaunertal.en-gb.html,EUR
46505,177405,Hotel Au Bout Du Monde,Place Llandeilo,Le Conquet,France,29217,Hotels,2,48.35954443,-4.77409601,2,http://www.booking.com/hotel/fr/au-bout-du-monde.en-gb.html,EUR
46506,177407,Amistad hotel,Kerkstraat 42,Amsterdam,Netherlands,,Hotels,2,52.36558099,4.88503888,2,http://www.booking.com/hotel/nl/amistad-amsterdam.en-gb.html,EUR
46507,177408,Hotel Krone,Rainerstrasse 1,Mondsee,Austria,5310,Hotels,4,47.85522701,13.35002147,2,http://www.booking.com/hotel/at/krone-mondsee.en-gb.html,EUR
46508,177408,Kyriad Rennes Nord,Rue Andre Meynier,Rennes,France,35000,Hotels,3,48.13090134,-1.703930497,5,https://www.agoda.com/en-gb/kyriad-rennes-nord/hotel/rennes-fr.html,EUR
46509,177409,TaunusTagungsHotel,Lochmuhlenweg 3,Friedrichsdorf,Germany,61381,Hotels,3,50.26702431,8.62967625,2,http://www.booking.com/hotel/de/taunustagungshotel.en-gb.html,EUR
46510,1774139,Georgievi Hotel,ul. Perla 20A,Primorsko,Bulgaria,8290,Hotels,2,42.27054676,27.75427341,2,http://www.booking.com/hotel/bg/georgievi.en-gb.html,BGN
46511,177415,Coachmans Townhouse Hotel,Henry Street,Kenmare,Ireland,,Hotels,3,51.87936881,-9.58350331,2,http://www.booking.com/hotel/ie/coachmans-townhouse.en-gb.html,EUR
46512,177420,Kyriad Brive la Gaillarde Centre,13 Avenue Jacques et Bernadette CHIRAC,Brive-la-Gaillarde,France,19100,Hotels,3,45.16675568,1.543671012,5,https://www.agoda.com/en-gb/kyriad-brive-la-gaillarde-centre/hotel/brive-la-gaillarde-fr.html,EUR
46513,1774209,Hotel Plaza,Viale F.lli  Cairoli  114,Fano,Italy,61032,Hotels,2,43.85051594,13.01232565,2,https://www.booking.com/hotel/it/plaza-fano.en-gb.html,EUR
46514,177428,Hotel Dogana Vecchia,Via Corte D'Appello 4,Turin,Italy,10122,Hotels,3,45.07369995,7.681029797,5,https://www.agoda.com/en-gb/hotel-dogana-vecchia/hotel/turin-it.html,EUR
46515,177437,Campanile Perpignan Nord,Peage Perpignan Nord - Sortie 41,Rivesaltes,France,66600,Hotels,3,42.7808342,2.899444342,5,https://www.agoda.com/en-gb/campanile-perpignan-nord/hotel/rivesaltes-fr.html,EUR
46516,177448,Brit Hotel Porte d'Espagne***,"Rond-point des Combattants en Afrique du Nord, D-900 (sortie ""Complexe hotelier Sud"")",Perpignan,France,66000,Hotels,3,42.6596489,2.884910107,5,https://www.agoda.com/en-gb/brit-hotel-porte-d-espagne/hotel/perpignan-fr.html,EUR
46517,17745,Civitel Akali Hotel,Kissamou 55,Chania Town,Greece,73131,Hotels,4,35.51089354,24.01099831,2,http://www.booking.com/hotel/gr/akali.en-gb.html,EUR
46518,177451,Christina Hotel,Main Street,Mesongi,Greece,49080,Hotels,4,39.4773758,19.9340567,2,http://www.booking.com/hotel/gr/christina.en-gb.html,EUR
46519,1774517,Hotel - Restaurant La Claire Foret,Allee de la Claire Foret,Morhange,France,57340,Hotels,3,48.94379934,6.6644311,2,http://www.booking.com/hotel/fr/restaurant-la-claire-foret.en-gb.html,EUR
46520,177454,Hotel / Weingut Meintzinger,Babenbergplatz 4,Frickenhausen,Germany,97252,Hotels,3,49.67114306,10.09327054,2,http://www.booking.com/hotel/de/weingut-meintzinger.en-gb.html,EUR
46521,177456,SKYHOTEL Merseburg,Thuringer Weg 28,Merseburg,Germany,6217,Hotels,4,51.33271654,11.9931677,2,http://www.booking.com/hotel/de/sky-merseburg.en-gb.html,EUR
46522,177458,Grand Hotel Regina,Largo Roma 3,Salsomaggiore Terme,Italy,43039,Hotels,4,44.81455046,9.98028785,2,http://www.booking.com/hotel/it/grand-regina.en-gb.html,EUR
46523,177459,Cosmopolitan Hotel & Wellness,Dobri Nemirov 1-3,Ruse,Bulgaria,7000,Hotels,4,43.84530067,25.94965607,2,http://www.booking.com/hotel/bg/cosmopolitan.en-gb.html,BGN
46524,177464,Causse Comtal,Route Despalion,Gages-le-Haut,France,12630,Hotels,3,44.42250172,2.67791748,2,http://www.booking.com/hotel/fr/causse-comtal.en-gb.html,EUR
46525,1774640,Fruhstuckspension Friedheim,Nr. 38,Filzmoos,Austria,5532,Bed and breakfasts,3,47.4334691,13.5213599,2,http://www.booking.com/hotel/at/fruhstuckspension-friedheim.en-gb.html,EUR
46526,177466,Hotel Brianza,Via Don Minzoni 16,Calderara di Reno,Italy,40012,Hotels,3,44.53824983,11.3047117,2,http://www.booking.com/hotel/it/brianza-lippo-di-calderara.en-gb.html,EUR
46527,177466,Hotel Burgenlanderhof,Raiffeisenstrasse 2,Morbisch am See,Austria,7072,Hotels,3,47.75400925,16.66947937,5,https://www.agoda.com/en-gb/hotel-burgenlanderhof/hotel/morbisch-am-see-at.html,EUR
46528,177468,Giannoulis - Santa Marina Plaza (Adults Only),"Main Street, Agia Marina",Agia Marina Nea Kydonias,Greece,73014,Resorts,4,35.51765285,23.93589377,2,http://www.booking.com/hotel/gr/santa-marina-plaza.en-gb.html,EUR
46529,1774690,NapoliMia Hotel,Via Toledo 323 Scala A  - 2deg Piano,Naples,Italy,80132,Hotels,4,40.84189632,14.24871606,2,http://www.booking.com/hotel/it/napolimia.en-gb.html,EUR
46530,177478,Il Girasole High Quality Inn,Via Doberdo 19,Milan,Italy,20126,Hotels,3,45.51906777,9.22392972,2,http://www.booking.com/hotel/it/il-girasole-high-quality-inn.en-gb.html,EUR
46531,177481,Hotel Rose,Karlsruher Strasse 93,Heidelberg,Germany,69126,Hotels,3,49.38001894,8.6875771,2,http://www.booking.com/hotel/de/rose-heidelberg.en-gb.html,EUR
46532,177482,Hotel Burgener,Dorfstrasse 43,Saas-Fee,Switzerland,3906,Hotels,2,46.10499939,7.92469382,2,http://www.booking.com/hotel/ch/burgener.en-gb.html,CHF
46533,177487,Hotel Terme Imperial,"Via San Pio X, 1",Montegrotto Terme,Italy,35036,Hotels,4,45.32402286,11.78432822,2,http://www.booking.com/hotel/it/terme-imperial.en-gb.html,EUR
46534,1774898,Hotel Solimar,Carrer de les Margalides 14,Colonia de Sant Pere,Spain,7579,Hotels,3,39.73160251,3.27425654,2,http://www.booking.com/hotel/es/solimar-colonia-de-san-pedro.en-gb.html,EUR
46535,1774941,Complex Lunna Pateka,Sozopolski Manastiri -11,Sozopol,Bulgaria,8130,Hotels,3,42.40758196,27.70387907,2,http://www.booking.com/hotel/bg/lunna-pateka.en-gb.html,BGN
46536,1774974,Rome Glam Hotel,Via Nazionale 82,Rome,Italy,184,Hotels,4,41.89897,12.49051,2,http://www.booking.com/hotel/it/rome-glam.en-gb.html,EUR
46537,1774977,The Tribune Hotel,Via Campania 45,Rome,Italy,185,Hotels,4,41.9099121,12.4912842,2,http://www.booking.com/hotel/it/the-tribune.en-gb.html,EUR
46538,177500,The Dog Inn,37 Hedingham Road,Braintree,United Kingdom,,Hotels,3,51.94659042,0.638369977,5,https://www.agoda.com/en-gb/the-dog-inn/hotel/braintree-gb.html,GBP
46539,1775013,Hotel Tuan,"via Nazionale, 3",Zoppola,Italy,33080,Hotels,3,45.94960585,12.75748668,2,http://www.booking.com/hotel/it/tuan.en-gb.html,EUR
46540,1775023,B&B Hotel Marseille Les Ports,7 Rue Andre Allar,Marseille,France,13015,Hotels,2,43.32519569,5.36434707,2,http://www.booking.com/hotel/fr/b-amp-b-marseille-les-ports.en-gb.html,EUR
46541,177503,Kyriad Sedan,89 Avenue De La Marne,Sedan,France,8200,Hotels,3,49.69516754,4.911327839,5,https://www.agoda.com/en-gb/kyriad-sedan/hotel/sedan-fr.html,EUR
46542,177504,Hotel Central,Sunny Beach City,Sunny Beach,Bulgaria,8240,Hotels,3,42.69794721,27.71041632,2,http://www.booking.com/hotel/bg/central-sunny-beach.en-gb.html,BGN
46543,1775049,Ibis Riga Centre,Marijas Iela 5,Riga,Latvia,,Hotels,3,56.948668,24.120906,2,http://www.booking.com/hotel/lv/ibis-riga-centre.en-gb.html,EUR
46544,177505,Hotel Krone Dorfkrug,Bahnhofstrasse 2,Bietigheim-Bissingen,Germany,74321,Hotels,3,48.94695415,9.09946978,2,http://www.booking.com/hotel/de/krone-dorfkrug.en-gb.html,EUR
46545,177507,Vilar do Golf by Diamond Resorts,Quinta Do Lago,Quinta do Lago,Portugal,,Resorts,4,37.04476903,-8.01733732,2,http://www.booking.com/hotel/pt/vilar-do-golf.en-gb.html,EUR
46546,177508,Jeffersons Hotel & Apartments,60-64 Duke Street,Barrow in Furness,United Kingdom,,Hotels,3,54.11244965,-3.228650093,5,https://www.agoda.com/en-gb/jeffersons-hotel-apartments/hotel/barrow-in-furness-gb.html,GBP
46547,1775094,Residencial Santo Andre,Rua Laura Ayres no21,Barreiro,Portugal,,Hotels,2,38.6411688,-9.05397615,2,http://www.booking.com/hotel/pt/residencial-santo-andre.en-gb.html,EUR
46548,177510,Hotel Lido,"Alcalde Catalan Chana, 16",Benidorm,Spain,3503,Hotels,3,38.530477,-0.1073489,2,http://www.booking.com/hotel/es/lido-benidorm.en-gb.html,EUR
46549,1775124,Hostal Hermanos Gutierrez,N-I Km259.500 La Brujula Carretera De Madrid-Irun,Monasterio de Rodilla,Spain,9292,Hotels,2,42.44128163,-3.49421136,2,http://www.booking.com/hotel/es/hostal-hermanos-gutierrez.en-gb.html,EUR
46550,177514,Hotel Des Carmes - Rouen,33 Place Des Carmes,Rouen,France,76000,Hotels,2,49.442226,1.0955416,5,https://www.agoda.com/en-gb/hotel-des-carmes-rouen/hotel/rouen-fr.html,EUR
46551,177516,Logis Hotel Des Chateaux De La Loire,"12, Rue Gambetta",Tours,France,37000,Hotels,2,47.3920188,0.68719938,2,http://www.booking.com/hotel/fr/logis-des-chateaux-de-la-loire.en-gb.html,EUR
46552,1775169,Hotel Trovador,Calle Puerto Viejo 38 Puerto de la Cruz,Puerto de la Cruz,Spain,38400,Hotels,3,28.41575774,-16.55439805,2,http://www.booking.com/hotel/es/trovador-puerto-de-la-cruz.en-gb.html,EUR
46553,177521,Hotel Rose,Brandbergstrasse 353,Mayrhofen,Austria,6290,Hotels,4,47.16703617,11.86535776,2,http://www.booking.com/hotel/at/rose-mayrhofen.en-gb.html,EUR
46554,177522,Novus City Hotel,"23 Karolou Str, Metaxourgeio",Athens,Greece,10437,Hotels,4,37.98332977,23.73332977,5,https://www.agoda.com/en-gb/novus-city-hotel/hotel/athens-gr.html,EUR
46555,177523,Hotel Le Hussard,"20, place du General de Gaulle",Alencon,France,61000,Hotels,2,48.43386155,0.09421527,2,http://www.booking.com/hotel/fr/logis-le-hussard.en-gb.html,EUR
46556,177526,Milling Hotel Mini 11,Hans Tausens Gade 11,Odense,Denmark,5000,Hotels,2,55.39876971,10.38242877,2,http://www.booking.com/hotel/dk/ydes.en-gb.html,DKK
46557,177527,Le Mistral - Montelimar Sud,Route Nationale 7 - Quartier Grand Pelican,Chateauneuf-du-Rhone,France,26780,Hotels,3,44.515024,4.744194,2,http://www.booking.com/hotel/fr/le-mistral-chateauneuf-du-rhone.en-gb.html,EUR
46558,177528,Annie's Bed & Breakfast,Piazzetta San Pietro 3,Ascona,Switzerland,6612,Bed and breakfasts,3,46.15494449,8.76753241,2,http://www.booking.com/hotel/ch/annie-s-bed-breakfast.en-gb.html,CHF
46559,177532,Hotel Bei der Esplanade,Colonnaden 45,Hamburg,Germany,20354,Hotels,2,53.55733821,9.9899894,2,http://www.booking.com/hotel/de/bei-der-esplanade.en-gb.html,EUR
46560,1775361,Riverside House,"Circular Road, Roscommon",Roscommon,Ireland,,Bed and breakfasts,4,53.63582408,-8.18451393,2,http://www.booking.com/hotel/ie/riverside-house-roscommon.en-gb.html,EUR
46561,177538,Hotel Kajetansbrucke,Vorderrauth 391,Pfunds,Austria,6542,Hotels,3,46.95638098,10.51380605,2,http://www.booking.com/hotel/at/kajetansbrucke.en-gb.html,EUR
46562,177539,Hotel Carol,Str. Mihail Kogalniceanu nr. 15,Constanta,Romania,900659,Hotels,4,44.178857,28.65281582,2,http://www.booking.com/hotel/ro/carol.en-gb.html,RON
46563,177540,Logis Le Fleuray,Route D74,Cangey,France,37530,Hotels,3,47.52538795,1.04388088,2,http://www.booking.com/hotel/fr/logis-le-fleuray.en-gb.html,EUR
46564,177540,Hotel 261,"261 Uxbridge Road, Shepherds Bush",London,United Kingdom,,Hotels,2,51.50648538,-0.243909359,5,https://www.agoda.com/en-gb/hotel-261/hotel/london-gb.html,GBP
46565,177542,ABC Hyde Park Hotel,121 Sussex Gardens,London,United Kingdom,,Hotels,3,51.51562119,-0.171340004,5,https://www.agoda.com/en-gb/abc-hyde-park-hotel/hotel/london-gb.html,GBP
46566,177543,The New London Carlton Hotel,120 Maida Vale,London,United Kingdom,,Hotels,3,51.53404617,-0.188032731,5,https://www.agoda.com/en-gb/the-new-london-carlton-hotel/hotel/london-gb.html,GBP
46567,177544,Hotel Cereda,Via Locarno 10,Sementina,Switzerland,6514,Hotels,3,46.18558728,8.99078071,2,http://www.booking.com/hotel/ch/cereda.en-gb.html,CHF
46568,177544,Parkhotel Hayma,Hugo-Junkers-Street 2,Monchengladbach,Germany,41236,Hotels,3,51.161026,6.443221,5,https://www.agoda.com/en-gb/parkhotel-hayma/hotel/monchengladbach-de.html,EUR
46569,177546,Joainig's Hotel Garni,Kochwirtplatz 4,Portschach am Worthersee,Austria,9210,Hotels,4,46.62938145,14.163571,2,http://www.booking.com/hotel/at/joainig.en-gb.html,EUR
46570,1775469,Pension Irma,Oberplanitzing 38,Caldaro,Italy,39052,Hotels,3,46.43882288,11.24837339,2,http://www.booking.com/hotel/it/pension-irma.en-gb.html,EUR
46571,177547,B&B Vila Dolce Vita,Ion Creanga nr 21,Simeria,Romania,335900,Bed and breakfasts,4,45.85249656,23.01303148,2,http://www.booking.com/hotel/ro/vila-dolce-vita.en-gb.html,RON
46572,177550,Hotel Stadt Salzburg,Salzburger Strasse 25,Bad Ischl,Austria,4820,Hotels,3,47.7138854,13.61767977,2,http://www.booking.com/hotel/at/stadt-salzburg.en-gb.html,EUR
46573,1775510,Hotel Corneliuss,"Dr. Alexandru Carnabel, Nr. 45",Galati,Romania,800004,Hotels,3,45.44319153,28.04924011,5,https://www.agoda.com/en-gb/hotel-corneliuss/hotel/galati-ro.html,EUR
46574,1775523,Cafe Restaurant Hotel De Mug,Vlasmarkt 54-56,Middelburg,Netherlands,,Hotels,3,51.49866053,3.6087188,2,https://www.booking.com/hotel/nl/braai-tapperij-de-mug.en-gb.html,EUR
46575,1775539,Hotel Hopps,Via Giacomo Hopps 29,Mazara del Vallo,Italy,91026,Hotels,4,37.647633,12.595713,2,http://www.booking.com/hotel/it/hopps-mazara-del-vallo.en-gb.html,EUR
46576,1775541,Staudacher Hof-Das Romantische Haus,Alexanderhofstrasse 9,Millstatt,Austria,9872,Hotels,3,46.80633101,13.56754849,2,http://www.booking.com/hotel/at/staudacher-hof.en-gb.html,EUR
46577,177555,Hotel Riede,Niederhofstrasse 18,Vienna,Austria,1120,Hotels,3,48.18132869,16.3321732,2,http://www.booking.com/hotel/at/pension-riede.en-gb.html,EUR
46578,177556,Cuevas del Tio Tobas,"Carretera de Almeria, Km 1",Alcudia de Guadix,Spain,18511,Resorts,3,37.24798774,-3.09335947,2,http://www.booking.com/hotel/es/cuevas-del-tio-tobas.en-gb.html,EUR
46579,1775579,A for Art Hotel,Theagenous Str. & 18is Octovriou Str.,Limenas,Greece,64004,Hotels,4,40.77978007,24.71030331,2,http://www.booking.com/hotel/gr/a-for-art.en-gb.html,EUR
46580,1775598,Lint Hotel Koln,Lintgasse 7,Cologne,Germany,50667,Hotels,3,50.93818412,6.9609247,2,http://www.booking.com/hotel/de/lint-koln.en-gb.html,EUR
46581,1775606,Hotel Castello S. Antonio,via S. Antonio  6,Lazise,Italy,37017,Hotels,2,45.50717185,10.75173134,2,http://www.booking.com/hotel/it/castello-s-antonio.en-gb.html,EUR
46582,177561,Hotel Bischofslinde,Am Bischofskreuz 15,Freiburg im Breisgau,Germany,79114,Hotels,3,48.00541194,7.81905167,2,http://www.booking.com/hotel/de/bischofslinde.en-gb.html,EUR
46583,177564,Hotel Le Romarin,Av Francois Arago,Font-Romeu-Odeillo-Via,France,66120,Hotels,2,42.49906,2.0318484,5,https://www.agoda.com/en-gb/hotel-le-romarin/hotel/font-romeu-odeillo-via-fr.html,EUR
46584,177565,Hotel Zillertaler Hof,Achenkirch 104,Achenkirch,Austria,6215,Hotels,4,47.51068878,11.69734001,5,https://www.agoda.com/en-gb/hotel-zillertaler-hof/hotel/achenkirch-at.html,EUR
46585,1775650,Hotel Rozka,Ambroz pod Krvavcem 55,Cerklje na Gorenjskem,Slovenia,4207,Hotels,3,46.29639499,14.52129058,2,http://www.booking.com/hotel/si/guesthouse-rozka.en-gb.html,EUR
46586,1775686,Warwick Conferences - Arden,The University of Warwick,Coventry,United Kingdom,,Hotels,3,52.38788986,-1.56377995,5,https://www.agoda.com/en-gb/warwick-conferences-arden/hotel/coventry-gb.html,GBP
46587,177579,Centrum Hotel Residence,14 Pietro Morici Street,Valderice,Italy,91019,Hotels,3,38.03726578,12.61638165,5,https://www.agoda.com/en-gb/centrum-hotel-residence/hotel/valderice-it.html,EUR
46588,177588,St Julians Bay Hotel,48 Main StreetSt Julians,St. Julian's,Malta,,Hotels,3,35.91477585,14.49302673,5,https://www.agoda.com/en-gb/st-julians-bay-hotel/hotel/st-julian-s-mt.html,EUR
46589,17759,Hotel Melody,"Ss E45 Km 55,800",Deruta,Italy,6053,Hotels,3,42.97487423,12.40819663,2,http://www.booking.com/hotel/it/melody.en-gb.html,EUR
46590,1775994,Goethe Conference Messe Hotel,"Schmidtstrasse 57, Gallusviertel",Frankfurt am Main,Germany,60326,Hotels,3,50.10468674,8.616335869,5,https://www.agoda.com/en-gb/goethe-conference-messe-hotel/hotel/frankfurt-am-main-de.html,EUR
46591,177603,Dionisis Studios,Main Street,Milos Island,Greece,84801,Hotels,2,36.72581863,24.44689941,5,https://www.agoda.com/en-gb/dionisis-studios/hotel/milos-island-gr.html,EUR
46592,177617,Hotel El Chico,Strada Romana 63,Varazze,Italy,17019,Hotels,4,44.365223,8.5997925,5,https://www.agoda.com/en-gb/hotel-el-chico/hotel/varazze-it.html,EUR
46593,177619,Hotel Heselbacher Hof,Heselbacher Weg 72,Baiersbronn,Germany,72270,Hotels,4,48.53826904,8.403860092,5,https://www.agoda.com/en-gb/hotel-heselbacher-hof/hotel/baiersbronn-de.html,EUR
46706,178224,Hotel Sommelo,Pallokentantie 2,Kouvola,Finland,45700,Hotels,3,60.9056564,26.62448913,2,http://www.booking.com/hotel/fi/sommelo.en-gb.html,EUR
46594,177623,Brooklands Hotel,Brooklands Drive,London,United Kingdom,,Hotels,4,51.35477066,-0.467682004,5,https://www.agoda.com/en-gb/brooklands-hotel/hotel/london-gb.html,GBP
46595,177624,Rhodes Hotel,195 Sussex Gardens,London,United Kingdom,,Hotels,2,51.51379395,-0.174554706,5,https://www.agoda.com/en-gb/rhodes-hotel/hotel/london-gb.html,GBP
46596,17763,Aphrodite Hills Golf & Spa Resort Residences - Apartments,Aphrodite Avenue,Kouklia,Cyprus,8509,Resorts,4,34.68326166,32.6077947,2,http://www.booking.com/hotel/cy/aphrodite-hills-holiday-rentals.en-gb.html,EUR
46597,177630,Samos Sun,Main Street,Samos Island,Greece,83103,Hotels,3,37.69453049,26.92074966,5,https://www.agoda.com/en-gb/samos-sun/hotel/samos-island-gr.html,EUR
46598,177633,Citybest Hotel,"31-33 Mansfield Road, Ilford",London,United Kingdom,,Hotels,2,51.56192017,0.066749997,5,https://www.agoda.com/en-gb/citybest-hotel/hotel/london-gb.html,GBP
46599,1776344,Golden Tulip Krakow Kazimierz,ul. Krakowska 28,Krakow,Poland,,Hotels,4,50.04983516,19.94419796,2,http://www.booking.com/hotel/pl/golden-tulip-krakow-kazimierz.en-gb.html,PLN
46600,1776355,Hotelli-Ravintola Alavus 66,Jarviluomantie 4,Alavus,Finland,63300,Hotels,3,62.5856553,23.6180651,2,http://www.booking.com/hotel/fi/hotelli-ravintola-alavus-66.en-gb.html,EUR
46601,1776360,Louise sur Cour,Rue Bosquet 6,Brussels,Belgium,1060,Bed and breakfasts,4,50.83296159,4.35632685,2,http://www.booking.com/hotel/be/louise-sur-cour.en-gb.html,EUR
46602,177644,The Peel Aldergate,13-14 Aldergate,Tamworth,United Kingdom,,Hotels,4,52.63542175,-1.696159959,5,https://www.agoda.com/en-gb/the-peel-aldergate/hotel/tamworth-gb.html,GBP
46603,177657,Valley Village,Main Street,Crete Island,Greece,70200,Hotels,3,34.99950027,24.75807953,5,https://www.agoda.com/en-ca/valley-village/hotel/crete-island-gr.html,EUR
46604,1776817,Hotel Rondo,Mikolaja z Rynska 11a,Wabrzezno,Poland,,Hotels,3,53.27708551,18.93227619,2,http://www.booking.com/hotel/pl/rondo.en-gb.html,PLN
46605,177694,Hotel Baltum,"Avenida 25 De Abril, 26",Albufeira,Portugal,,Hotels,3,37.08802032,-8.250240326,5,https://www.agoda.com/en-gb/hotel-baltum/hotel/albufeira-pt.html,EUR
46606,1776961,Camping L'Adrech,Route du Pont dAllons,La Mure,France,4170,Campsites,2,44.00675371,6.55852461,2,http://www.booking.com/hotel/fr/camping-l-adrech.en-gb.html,EUR
46607,1776999,Hotel Parco,Via Virgilio 2,San Benedetto del Tronto,Italy,63074,Hotels,3,42.93618713,13.89117178,2,http://www.booking.com/hotel/it/parco-san-benedetto-del-tronto.en-gb.html,EUR
46608,1777084,Stacci Rural Resort,Contrada Cannizzara Ciancia 1,Cannizzara,Italy,97015,Resorts,4,36.85679991,14.85546395,2,http://www.booking.com/hotel/it/stacci-resort.en-gb.html,EUR
46609,1777159,Il Postiglione,Via Appia 1448 Minturno 04020,Minturno,Italy,4020,Hotels,3,41.24804747,13.74371409,2,http://www.booking.com/hotel/it/il-postiglione-minturno.en-gb.html,EUR
46610,177716,Des Masques,Place du Village 7,Anzere,Switzerland,1972,Hotels,2,46.297512,7.39849,5,https://www.agoda.com/en-gb/des-masques/hotel/anzere-ch.html,CHF
46611,17772,Mercure Cieszyn,ul. Motelowa 21,Cieszyn,Poland,,Hotels,3,49.76515537,18.63439634,2,http://www.booking.com/hotel/pl/halnycieszyn.en-gb.html,PLN
46612,1777244,La Rochette,route des campings,Guillestre,France,5600,Campsites,3,44.65842164,6.6382531,2,http://www.booking.com/hotel/fr/la-rochette.en-gb.html,EUR
46613,1777263,Hotel Romantik,"Lipova-lazne 363, 790 61 Lipova-Lazne",Lipova Lazne,Czech Republic,,Hotels,4,50.22896345,17.14758671,2,http://www.booking.com/hotel/cz/romantik.en-gb.html,EUR
46614,17773,Hotel DoniaState,Badweg 2,Oost-Vlieland,Netherlands,,Hotels,3,53.29845232,5.06381683,2,http://www.booking.com/hotel/nl/doniastate.en-gb.html,EUR
46615,177736,Hotel Palac Akropol,Al. Warszawska 179a,Jastkow,Poland,,Hotels,3,51.27574158,22.48487091,5,https://www.agoda.com/en-gb/hotel-palac-akropol/hotel/jastkow-pl.html,EUR
46616,1777510,Villa Arizona,Viale 2 giugno 135,Milano Marittima,Italy,48015,Hotels,3,44.28541218,12.3483344,2,http://www.booking.com/hotel/it/arizona-milano-marittima.en-gb.html,EUR
46617,177757,Hotel des Cayrons,2340 Route de Cagnes,Vence,France,6140,Hotels,3,43.70542145,7.132599831,5,https://www.agoda.com/en-gb/logis-hotel-des-cayrons/hotel/vence-fr.html,EUR
46618,1777601,Casale Milocca,Traversa Case Troia,Siracusa,Italy,96100,Resorts,4,37.01016554,15.26747247,2,http://www.booking.com/hotel/it/casale-milocca.en-gb.html,EUR
46619,1777605,Bezmerovsky dvur Kromeriz,Bezmerov 36/103,Kromeriz,Czech Republic,,Hotels,3,49.32967689,17.33488888,2,http://www.booking.com/hotel/cz/bezmerovsky-dvur-kromeriz.en-gb.html,EUR
46620,1777627,l'Auberge Nordique,1515 route de Lormay,Le Grand-Bornand,France,74450,Hotels,3,45.9431736,6.5005406,2,http://www.booking.com/hotel/fr/l-39-auberge-nordique.en-gb.html,EUR
46621,1777642,Hotel O Sole Mio,Via Deserto 13,SantAgata sui Due Golfi,Italy,80061,Hotels,4,40.61076907,14.36854997,2,http://www.booking.com/hotel/it/o-sole-mio.en-gb.html,EUR
46622,17777,Hotel Apartamentos Don Juan I,"Don Juan I, 11",Alcala de Henares,Spain,28807,Hotels,2,40.48584987,-3.36686566,2,http://www.booking.com/hotel/es/apartamentos-don-juan-i.en-gb.html,EUR
46623,1777719,Hotel Auhof,Unterbergstrasse 70,Grossarl,Austria,5611,Hotels,4,47.24209083,13.1958487,2,http://www.booking.com/hotel/at/auhof-grossarl.en-gb.html,EUR
46624,177791,Hotel Defkalion,Main Street,Lesvos,Greece,81109,Hotels,2,39.3196106,26.16316032,5,https://www.agoda.com/en-gb/hotel-defkalion/hotel/lesvos-gr.html,EUR
46625,177797,Poseidon Hotel,14th klm Old National Road of Patra - Pyrgos,Kaminia,Greece,25002,Hotels,3,38.1542511,21.62742043,5,https://www.agoda.com/en-gb/poseidon-hotel/hotel/kaminia-gr.html,EUR
46626,177800,Kastro Suites,Fira,Santorini,Greece,84700,Hotels,4,36.41991043,25.4304657,5,https://www.agoda.com/en-gb/kastro-suites/hotel/santorini-gr.html,EUR
46627,1778024,Priska Luxury Rooms,Zrinsko-Frankopanska 13,Split,Croatia,21000,Hotels,4,43.51157903,16.43636865,2,https://www.booking.com/hotel/hr/guest-house-priska-luxury-rooms.en-gb.html,EUR
46628,1778026,Camping Le Vallon Rouge,Route de Greolieres,La Colle-sur-Loup,France,6480,Campsites,3,43.6850913,7.07352199,2,http://www.booking.com/hotel/fr/au-vallon-rouge-la-colle-sur-loup.en-gb.html,EUR
46629,177804,Enodia hotel,Vassiliki,Lefkada,Greece,31082,Hotels,4,38.63267136,20.59977913,5,https://www.agoda.com/en-gb/enodia-hotel/hotel/lefkada-gr.html,EUR
46630,1778056,Zum Dorfschmied,Marktstrasse 16,Klein Sankt Paul,Austria,9373,Hotels,3,46.83570462,14.54057089,2,http://www.booking.com/hotel/at/zum-dorfschmied-klein-sankt-paul.en-gb.html,EUR
46631,177806,Avra Beach Hotel,Main Street 31100,Lefkada,Greece,31084,Hotels,2,38.71099091,20.71567917,5,https://www.agoda.com/en-gb/avra-beach-hotel/hotel/lefkada-gr.html,EUR
46632,177808,Amaryllis Hotel,15 Tompazi Str,Idra,Greece,18040,Hotels,2,37.34925079,23.46743965,5,https://www.agoda.com/en-gb/amaryllis-hotel/hotel/idra-gr.html,EUR
46633,1778083,Hotel Eva,Via Abruzzo 59,Alba Adriatica,Italy,64011,Hotels,3,42.82271005,13.93177862,2,http://www.booking.com/hotel/it/eva-alba-adriatica.en-gb.html,EUR
46634,1778092,Hotel Turrita,Vocabolo Isola 5,Arrone,Italy,5031,Hotels,3,42.58039553,12.75160897,2,http://www.booking.com/hotel/it/turrita.en-gb.html,EUR
46635,1778209,Hotel Soraya,Viale Rinascimento 31,San Benedetto del Tronto,Italy,63074,Hotels,3,42.9181147,13.90281614,2,http://www.booking.com/hotel/it/soraya.en-gb.html,EUR
46636,1778214,Hotel The Originals Montpellier Sud Hotelio,1 chemin Saint-Hubert,Lattes,France,34970,Hotels,3,43.58677835,3.89590308,2,http://www.booking.com/hotel/fr/inter-hotelio-montpellier-sud.en-gb.html,EUR
46637,1778216,May Ramblas Hotel,Cardenal Casanas 6-8,Barcelona,Spain,8002,Hotels,3,41.38165187,2.1733875,2,http://www.booking.com/hotel/es/may-ramblas.en-gb.html,EUR
46638,177829,Pantheon Hotel,Tsilivi,Zakynthos Island,Greece,29100,Hotels,3,37.81866455,20.86018944,5,https://www.agoda.com/en-gb/pantheon-hotel/hotel/zakynthos-island-gr.html,EUR
46639,177841,Poseidon Hotel,Main Street,Ios Chora,Greece,84001,Hotels,2,36.72137833,25.2741394,5,https://www.agoda.com/en-gb/poseidon-hotel/hotel/ios-chora-gr.html,EUR
46640,17785,ibis Styles Bielsko Biala,ul. Zywiecka 93,Bielsko-Biala,Poland,,Hotels,3,49.80664046,19.0562126,2,http://www.booking.com/hotel/pl/magurabielskobiala.en-gb.html,PLN
46641,177855,Dias Hotel & Apts,Main Road,Crete Island,Greece,70007,Hotels,4,35.29679871,25.42201042,5,https://www.agoda.com/en-gb/dias-hotel-apts/hotel/crete-island-gr.html,EUR
46642,17786,Premium Hotel Bacero Wroclaw,ul. Oltaszynska 107,Wroclaw,Poland,,Hotels,3,51.06015368,17.00717792,2,http://www.booking.com/hotel/pl/hotelbacerowroclaw.en-gb.html,PLN
46643,1778603,Hotel U Brany,Bri Luzu 1769 Hotel U Brany,Uhersky Brod,Czech Republic,,Hotels,3,49.02185524,17.64773356,2,http://www.booking.com/hotel/cz/u-brany.en-gb.html,EUR
46644,1778694,Hotel Cora,"Bd. Mamaia, Nr. 201",Constanta,Romania,900540,Hotels,2,44.2005016,28.64634231,2,http://www.booking.com/hotel/ro/cora.en-gb.html,RON
46645,177873,Haris Hotel,Chanioti,Chalkidiki,Greece,,Hotels,2,40.0030098,23.5644207,5,https://www.agoda.com/en-gb/haris-hotel/hotel/chalkidiki-gr.html,EUR
46646,17788,Centrum Hotelowo-Konferencyjne Witek,Ul. Handlowcow 14,Modlniczka,Poland,,Hotels,4,50.10515278,19.84388351,2,http://www.booking.com/hotel/pl/centrumhotelowokonferencyjnewitekmodlniczka.en-gb.html,PLN
46647,177880,Hotel Coral Matala,Main Street,Crete Island,Greece,70200,Hotels,2,34.99636078,24.75460052,5,https://www.agoda.com/en-gb/hotel-coral-matala/hotel/crete-island-gr.html,EUR
46648,1778833,7Hotel&Fitness,Parc dinnovation Boulevard Sebastien Brant,Illkirch-Graffenstaden,France,67400,Hotels,4,48.52317698,7.73894966,2,http://www.booking.com/hotel/fr/7hotel-amp-fitness.en-gb.html,EUR
46649,1778837,Hotel Marconi Miramare,Via Marconi 99,Rimini,Italy,47924,Hotels,3,44.02958071,12.62116456,2,http://www.booking.com/hotel/it/marconi-miramare.en-gb.html,EUR
46650,1778928,Hotel Restaurant L'Europe,Port de Plaisance Place des Portes,Saint-Florent,France,20217,Hotels,2,42.68049512,9.30135336,2,http://www.booking.com/hotel/fr/restaurant-l-39-europe.en-gb.html,EUR
46651,177896,Oasis Hotel,Agia Marina,Aegina,Greece,18010,Hotels,2,37.74322891,23.53611946,5,https://www.agoda.com/en-gb/oasis-hotel/hotel/aegina-gr.html,EUR
46652,1778965,Brit Hotel Brive La Gaillarde - Restaurant La Limousine,52-54 Avenue Pierre et Marie Curie,Malemort-sur-Correze,France,19360,Hotels,3,45.16793553,1.55324981,2,http://www.booking.com/hotel/fr/brit-brive-la-gaillarde.en-gb.html,EUR
46653,177897,Hotel Erofili,Portaria,Portaria,Greece,37011,Hotels,3,39.39094925,22.99751091,5,https://www.agoda.com/en-gb/hotel-erofili/hotel/portaria-gr.html,EUR
46654,177899,Despotiko,Portaria,Portaria,Greece,37011,Hotels,4,39.38788986,22.99799919,5,https://www.agoda.com/en-gb/despotiko/hotel/portaria-gr.html,EUR
46655,177901,Hotel Palladio,.,Portaria,Greece,37011,Hotels,4,39.38863,22.997519,5,https://www.agoda.com/en-gb/hotel-palladio/hotel/portaria-gr.html,EUR
46656,17791,Prinsenhotel,Vondelstraat 36-38,Amsterdam,Netherlands,,Hotels,3,52.36242645,4.87765945,2,http://www.booking.com/hotel/nl/prinsenhotel.en-gb.html,EUR
46657,177921,Vital - und Wellnesshotel Hanneshof,Dorfstrasse 126,Filzmoos,Austria,5532,Hotels,4,47.43421936,13.52163029,5,https://www.agoda.com/en-gb/vital-und-wellnesshotel-hanneshof/hotel/filzmoos-at.html,EUR
46658,1779239,Hotel zur Loreley,Heerstrasse 87,Sankt Goar,Germany,56329,Hotels,3,50.15109,7.7142,2,http://www.booking.com/hotel/de/restaurant-zur-loreley.en-gb.html,EUR
46659,1779358,La Balnearia,Via Vittorio Veneto 105,Alassio,Italy,17021,Hotels,3,44.00367615,8.17063526,2,https://www.booking.com/hotel/it/la-balnearia.en-gb.html,EUR
46660,177940,Family Hotel and Spa Desiree,Dorf,Grachen,Switzerland,3925,Hotels,3,46.19551086,7.840000153,5,https://www.agoda.com/en-gb/family-hotel-and-spa-desiree/hotel/grachen-ch.html,CHF
46661,1779433,Hotel Crystal,Via Giovanni Pascoli 29,Marina di Pietrasanta,Italy,55045,Hotels,3,43.93153432,10.20188553,2,http://www.booking.com/hotel/it/cristal-marina-di-pietrasanta.en-gb.html,EUR
46662,177955,Residence U Cerne Veze Ceske Budejovice,U Cerne Veze 13,Ceske Budejovice,Czech Republic,37001,Hotels,4,48.97652054,14.47570992,5,https://www.agoda.com/en-gb/residence-u-cerne-veze-ceske-budejovice/hotel/ceske-budejovice-cz.html,EUR
46663,177956,Hotel Roxy & Maryo,Str. Diamant 14,Eforie Nord,Romania,905350,Hotels,3,44.06760025,28.63496971,5,https://www.agoda.com/en-gb/hotel-roxy-maryo/hotel/eforie-nord-ro.html,EUR
46664,1779569,Evi Evan Hotel,Galissas,Galissas,Greece,84100,Hotels,2,37.42065804,24.88042295,2,http://www.booking.com/hotel/gr/evi-evan.en-gb.html,EUR
46665,1779588,Hotel La Casa Del Abuelo,San antonio 15,Tapia de Casariego,Spain,33740,Hotels,2,43.56445264,-6.92699991,2,http://www.booking.com/hotel/es/la-casa-del-abuelo-tapia-de-casariego.en-gb.html,EUR
46666,177963,Moonfleet Manor,Fleet,Weymouth,United Kingdom,,Hotels,4,50.6242218,-2.541470051,5,https://www.agoda.com/en-gb/moonfleet-manor/hotel/weymouth-gb.html,GBP
46667,1779983,Hotel Emmar,1 Slavey str.,Zlatograd,Bulgaria,4980,Hotels,3,41.38118397,25.09642124,2,http://www.booking.com/hotel/bg/hotel-emmar.en-gb.html,BGN
46668,17802,Atlas Hotel Holiday,Groene Kruisweg 11,Spijkenisse,Netherlands,,Hotels,3,51.85293812,4.32022333,2,http://www.booking.com/hotel/nl/atlas-holiday.en-gb.html,EUR
46669,178023,Hotel du Romancier,6 rue Chateaubriand,Paris,France,75008,Hotels,4,48.8731842,2.302386761,5,https://www.agoda.com/en-gb/hotel-du-romancier/hotel/paris-fr.html,EUR
46670,1780231,Hotel Graziella,Viale San Salvador 56,Rimini,Italy,47922,Hotels,3,44.10556811,12.51451331,2,http://www.booking.com/hotel/it/graziella-torre-pedrera.en-gb.html,EUR
46671,1780331,Masseria Relais Santa Teresa,Contrada Santa Teresa,Sannicola,Italy,73017,Hotels,4,40.10543005,18.04381979,2,http://www.booking.com/hotel/it/masseria-relais-santa-teresa.en-gb.html,EUR
46672,1780589,Hotel Bruckele,Braies di Fuori 4,Braies,Italy,39030,Hotels,3,46.67763454,12.14970858,2,http://www.booking.com/hotel/it/bruckele.en-gb.html,EUR
46673,17808,Parque San Antonio,Carretera de las Arenas,Puerto de la Cruz,Spain,38400,Hotels,4,28.40759892,-16.54911429,2,http://www.booking.com/hotel/es/parque-san-antonio.en-gb.html,EUR
46674,17809,Hotel Best Roma,Via Di Porta Maggiore 51,Rome,Italy,185,Hotels,4,41.8928976,12.5117594,2,http://www.booking.com/hotel/it/best-roma.en-gb.html,EUR
46675,17810,Mercure Gdansk Posejdon,Kapliczna 30,Gdansk,Poland,,Hotels,3,54.42310919,18.59802693,2,http://www.booking.com/hotel/pl/posejdonorbisgdansk.en-gb.html,PLN
46676,1781121,Walkers Nest,Carlingford Moneymore,Carlingford,Ireland,,Bed and breakfasts,3,54.02442644,-6.17652634,2,http://www.booking.com/hotel/ie/walkers-nest.en-gb.html,EUR
46677,1781142,Quest en France Holidays - Mobile Home at Les Mathes,"Quest en France Holidays, 225 Route de la Bouverie",Les Mathes,France,17570,Holiday parks,4,45.72995581,-1.17722369,2,http://www.booking.com/hotel/fr/l-39-oree-du-bois-les-mathes.en-gb.html,EUR
46678,1781640,Hotel Castellinaria,S.S. 16 km. 832 Case Sparse 225/a S.S. 16 km. 832,Polignano a Mare,Italy,70044,Hotels,3,41.01572118,17.18612093,2,http://www.booking.com/hotel/it/castellinaria-polignano-a-mare.en-gb.html,EUR
46679,1781697,Hotel Saint Jacques,place du monument,Thorigne-sur-Due,France,72160,Hotels,3,48.04006312,0.53917229,2,http://www.booking.com/hotel/fr/saint-jacques-xml.en-gb.html,EUR
46680,1781762,Gasthof zur Post - Familie Luegmayer,Marktplatz 4,Neuhofen an der Ybbs,Austria,3364,Hotels,3,48.05779632,14.85610125,2,http://www.booking.com/hotel/at/gasthof-zur-post-familie-luegmayer.en-gb.html,EUR
46681,1781765,Hotel Villa Anita,Geitenweg 12,De Panne,Belgium,8660,Hotels,2,51.10096833,2.58502578,2,http://www.booking.com/hotel/be/villa-anita.en-gb.html,EUR
46682,1781780,Lau'berge de la cle d'Or,73 Grande Rue,Barbizon,France,77630,Hotels,3,48.44599834,2.60281242,2,http://www.booking.com/hotel/fr/lau-39-berge-de-la-cle-d-39-or.en-gb.html,EUR
46683,1781794,Vilamoura Garden Hotel,"Rua de Franca, Lote 3.5.11",Vilamoura,Portugal,,Hotels,4,37.0919158,-8.11331007,2,http://www.booking.com/hotel/pt/vilamoura-garden.en-gb.html,EUR
46684,17818,Blu Hotel,"Via Torino, 154",Collegno,Italy,10093,Hotels,4,45.07290689,7.590563,2,http://www.booking.com/hotel/it/blu.en-gb.html,EUR
46685,1781842,First Hotel Arlanda Airport,Pionjarvagen,Arlanda,Sweden,,Hotels,3,59.6128576,17.89279023,2,http://www.booking.com/hotel/se/first-arlanda-airport.en-gb.html,SEK
46686,1781851,Tinel B&B Premium Edition,Don Ive Prodana 4,Zadar,Croatia,23000,Bed and breakfasts,4,44.1141341,15.22784451,2,https://www.booking.com/hotel/hr/tinel-b-amp-b-premium-edition.en-gb.html,EUR
46687,1781894,Hotel Jole,Via Marina 17,San Mauro a Mare,Italy,47030,Hotels,3,44.16315808,12.44612136,2,http://www.booking.com/hotel/it/jole-san-mauro-a-mare.en-gb.html,EUR
46688,17819,Hotel Capolago,Via Per Bodio 74,Varese,Italy,21100,Hotels,4,45.79416384,8.80261838,2,http://www.booking.com/hotel/it/capolago.en-gb.html,EUR
46689,178199,Holiday Inn Express Marseille Saint Charles,15 Boulevard Maurice Bourdet,Marseille,France,,Hotels,3,43.30272293,5.379330635,5,https://www.agoda.com/en-gb/holiday-inn-express-marseille-saint-charles/hotel/marseille-fr.html,EUR
46690,1782,Britannia International Hotel Canary Wharf,163 Marsh Wall,London,United Kingdom,,Hotels,4,51.5018425,-0.022995999,5,https://www.agoda.com/en-gb/britannia-international-hotel-canary-wharf/hotel/london-gb.html,GBP
46691,178201,Scandic Aulanko,Aulangontie 93,Hameenlinna,Finland,13210,Hotels,4,61.02270093,24.44286346,2,http://www.booking.com/hotel/fi/scandic-aulanko.en-gb.html,EUR
46692,178202,Scandic Waskia,Lemmenpolku 3,Vaasa,Finland,65170,Hotels,3,63.08798013,21.58757687,2,http://www.booking.com/hotel/fi/scandic-waskia.en-gb.html,EUR
46693,178203,Scandic Rukahovi,Rukankylantie 15,Ruka,Finland,93830,Hotels,4,66.16778589,29.1398862,2,http://www.booking.com/hotel/fi/scandic-rukahovi.en-gb.html,EUR
46694,178204,Scandic Pohjanhovi,Pohjanpuistikko 2,Rovaniemi,Finland,96200,Hotels,4,66.50238462,25.73738605,2,http://www.booking.com/hotel/fi/scandic-pohjanhovi.en-gb.html,EUR
46695,178207,Hotel Kalkstrand,Rantatie 1,Pargas,Finland,21600,Hotels,3,60.29797497,22.30269402,2,http://www.booking.com/hotel/fi/kalkstrand.en-gb.html,EUR
46696,178208,Hotel Strandbo,Nauvon Ranta 3,Nauvo,Finland,21660,Hotels,3,60.19375602,21.91126853,2,http://www.booking.com/hotel/fi/strandbo.en-gb.html,EUR
46697,178210,Vammalan Seurahuone,Puistokatu 4,Sastamala,Finland,38200,Hotels,3,61.34191486,22.90872574,2,http://www.booking.com/hotel/fi/vammalan-seurahuone.en-gb.html,EUR
46698,178212,Hotel Lasaretti,Kasarmintie 13,Oulu,Finland,90130,Hotels,4,65.02085153,25.48502505,2,http://www.booking.com/hotel/fi/lasaretti.en-gb.html,EUR
46699,178216,Hotel Sparre,Piispankatu 34,Porvoo,Finland,6100,Hotels,3,60.39406937,25.66213131,2,http://www.booking.com/hotel/fi/sparre.en-gb.html,EUR
46700,178217,Hotel Kauppi,Kalevan Puistotie 2,Tampere,Finland,33500,Hotels,3,61.5058088,23.7862587,2,http://www.booking.com/hotel/fi/kauppi.en-gb.html,EUR
46701,178218,Hotel Hirvi,Kotakennaantie 9,Aanekoski,Finland,44100,Hotels,3,62.60136607,25.72161466,2,http://www.booking.com/hotel/fi/hirvi.en-gb.html,EUR
46702,178220,Hotel Kivitasku,Aittakatu 1,Kaarina,Finland,20780,Hotels,3,60.40764083,22.37066925,2,http://www.booking.com/hotel/fi/kivitasku.en-gb.html,EUR
46703,178221,Scandic Rosendahl,Pyynikintie 13,Tampere,Finland,33230,Hotels,4,61.49349149,23.73069406,2,http://www.booking.com/hotel/fi/scandic-rosendahl.en-gb.html,EUR
46704,178222,Scandic Espoo,Nihtisillantie 1,Espoo,Finland,2630,Hotels,3,60.20816786,24.75440204,2,http://www.booking.com/hotel/fi/scandic-espoo.en-gb.html,EUR
46705,178223,Hotel Iso Syote,Iso Syotteentie 246,Syote,Finland,93280,Hotels,3,65.62237688,27.6036644,2,http://www.booking.com/hotel/fi/iso-syote.en-gb.html,EUR
46707,178225,Scandic Plaza Turku,Yliopistonkatu 29,Turku,Finland,,Hotels,4,60.45053042,22.26092935,2,http://www.booking.com/hotel/fi/scandic-plaza-turku.en-gb.html,EUR
46708,178226,Ruusuhovi,Hovintie 135,Rantasalmi,Finland,58900,Hotels,3,62.04389812,28.41134191,2,https://www.booking.com/hotel/fi/ruusuhovi.en-gb.html,EUR
46709,178227,Finlandia Hotel Fooninki,Kaarretie 4,Seinajoki,Finland,60510,Hotels,3,62.80722663,22.88235158,2,http://www.booking.com/hotel/fi/fooninki.en-gb.html,EUR
46710,178228,Scandic Patria,Kauppakatu 21,Lappeenranta,Finland,53100,Hotels,4,61.06134065,28.1842044,2,http://www.booking.com/hotel/fi/scandic-patria.en-gb.html,EUR
46711,178229,Center Hotel Imatra,Koskenparras 3,Imatra,Finland,55100,Hotels,3,61.17099766,28.77095774,2,http://www.booking.com/hotel/fi/center-hotel-imatra.en-gb.html,EUR
46712,178230,Scandic Seinajoki,Kauppakatu 10,Seinajoki,Finland,60100,Hotels,4,62.78945797,22.84244299,2,http://www.booking.com/hotel/fi/scandic-seinajoki.en-gb.html,EUR
46713,178231,Scandic Mikkeli,Mikonkatu 9,Mikkeli,Finland,50100,Hotels,4,61.68921965,27.27013171,2,http://www.booking.com/hotel/fi/scandic-mikkeli.en-gb.html,EUR
46714,178232,Scandic Lappeenranta City,Valtakatu 31,Lappeenranta,Finland,53100,Hotels,3,61.05808548,28.18476498,2,http://www.booking.com/hotel/fi/scandic-lappeenranta.en-gb.html,EUR
46715,178234,Scandic Jyvaskyla City,Vainonkatu 3,Jyvaskyla,Finland,40100,Hotels,4,62.24256488,25.75186193,2,http://www.booking.com/hotel/fi/scandic-jyvaskyla-city.en-gb.html,EUR
46716,1782348,B&B Hotel Paris Est Bobigny Universite,Avenue de la Convention - Rue Rene Goscinny,Bobigny,France,93000,Hotels,2,48.91512791,2.41732629,2,http://www.booking.com/hotel/fr/b-amp-b-paris-est-bobigny.en-gb.html,EUR
46717,178235,Scandic Joensuu,Kirkkokatu 20,Joensuu,Finland,80100,Hotels,4,62.60224117,29.76009071,2,http://www.booking.com/hotel/fi/scandic-joensuu.en-gb.html,EUR
46718,178236,Scandic Laajavuori,Laajavuorentie 30,Jyvaskyla,Finland,40740,Hotels,4,62.25957396,25.69742918,2,http://www.booking.com/hotel/fi/scandic-laajavuori.en-gb.html,EUR
46719,178237,Scandic Imatran Valtionhotelli,Torkkelinkatu 2,Imatra,Finland,55100,Hotels,4,61.16902135,28.77055407,2,http://www.booking.com/hotel/fi/scandic-imatran-valtionhotelli.en-gb.html,EUR
46720,17824,Hotel City Parma,Strada Del Cornocchio 55,Parma,Italy,43126,Hotels,4,44.82435063,10.30294955,2,http://www.booking.com/hotel/it/city-parma.en-gb.html,EUR
46721,1782404,Hotel Marconi,"Via John Fitzgerald Kennedy, 5",Pietraperzia,Italy,94016,Hotels,3,37.41646616,14.13877441,2,http://www.booking.com/hotel/it/marconi-case-martinez.en-gb.html,EUR
46722,1782429,Spa Hotel Iris,Sadova 866/867,Karlovy Vary,Czech Republic,,Hotels,4,50.22557442,12.87664128,2,http://www.booking.com/hotel/cz/spa-iris-karlovy-vary3.en-gb.html,EUR
46723,1782562,Hotel Lanterna,"via XX Settembre, 242",Porto San Giorgio,Italy,63822,Hotels,3,43.16743155,13.80385846,2,http://www.booking.com/hotel/it/lanterna-porto-san-giorgio.en-gb.html,EUR
46724,178259,Hadleigh Hotel,24 Upper Berkeley Street,London,United Kingdom,,Hotels,2,51.51548004,-0.160835981,5,https://www.agoda.com/en-gb/hadleigh-hotel/hotel/london-gb.html,GBP
46725,1782635,Hotel Grand Prix,Viale mediterraneo 30,Sottomarina,Italy,30015,Hotels,3,45.1986414,12.29914097,2,http://www.booking.com/hotel/it/gran-prix.en-gb.html,EUR
46726,1782638,The Orchard Bed and Breakfast,"Limerick Road,.",Newcastle West,Ireland,,Bed and breakfasts,3,52.45495002,-9.03904157,2,http://www.booking.com/hotel/ie/the-orchard-bed-and-breakfast-newcastle-west.en-gb.html,EUR
46727,1782710,Hotel Pescetto,via Dalmazia 8,Albenga,Italy,17031,Hotels,2,44.0513568,8.2183169,2,http://www.booking.com/hotel/it/pescetto.en-gb.html,EUR
46728,1782743,Hotel Tritone,Via San Martino 36,Porto San Giorgio,Italy,63822,Hotels,3,43.1638978,13.80745196,2,https://www.booking.com/hotel/it/tritone-porto-san-giorgio.en-gb.html,EUR
46729,17828,Hotel Letizia,S.S. E 45 N. 9235,Borello,Italy,47022,Hotels,3,44.06269794,12.18375683,2,http://www.booking.com/hotel/it/letizia.en-gb.html,EUR
46730,1782880,Val Del Rio,Via Giardini 221,Fiumalbo,Italy,41022,Hotels,3,44.16512889,10.64169051,2,http://www.booking.com/hotel/it/val-del-rio-fiumalbo.en-gb.html,EUR
46731,1782907,Hotel Caravel,Via Cristoforo Colombo 62,Sottomarina,Italy,30015,Hotels,3,45.20275887,12.29817794,2,http://www.booking.com/hotel/it/caravel-sottomarina.en-gb.html,EUR
46732,178292,Woodberry Hotel,6 Woodberry Down,London,United Kingdom,,Hotels,3,51.5709081,-0.0945284,5,https://www.agoda.com/en-gb/woodberry-hotel/hotel/london-gb.html,GBP
46733,178299,Hotel du Couvent Royal,Place Jean Salusse,Saint-Maximin-la-Sainte-Baume,France,83470,Hotels,4,43.45342636,5.863340855,5,https://www.agoda.com/en-gb/hotel-du-couvent-royal/hotel/saint-maximin-la-sainte-baume-fr.html,EUR
46734,1783368,Hotel Krone,Viale Fratelli Vivaldi 38,Lido di Classe,Italy,48125,Hotels,3,44.32655835,12.3368548,2,http://www.booking.com/hotel/it/krone-ravenna.en-gb.html,EUR
46735,1783374,Komlo Hotel Gyula,Beke sugarut 8.,Gyula,Hungary,5700,Hotels,4,46.64574183,21.27226335,2,http://www.booking.com/hotel/hu/komlo-gyula.en-gb.html,EUR
46736,1783442,Villa Petrusa,Via Soldato Panettieri 4,Stromboli,Italy,98050,Hotels,2,38.80623209,15.23237027,2,http://www.booking.com/hotel/it/villa-petrusa.en-gb.html,EUR
46737,1783458,Waterfront Hotel Dungloe,Mill Road,Dungloe,Ireland,,Hotels,4,54.95191475,-8.36687844,2,http://www.booking.com/hotel/ie/waterfront-dungloe.en-gb.html,EUR
46738,1783494,Hotel Zur Muhle Boutique & Spa,Schmilka Nr. 11,Bad Schandau,Germany,1814,Hotels,4,50.89226471,14.23231512,2,http://www.booking.com/hotel/de/quot-gasthof-zur-muhle-quot.en-gb.html,EUR
46739,1783713,Seehotel Lilly,Burglstrasse 116,Strobl,Austria,5350,Hotels,3,47.7193471,13.48176642,2,http://www.booking.com/hotel/at/seehotel-lilly.en-gb.html,EUR
46740,1783722,Gasthof zur Post,Dorf 13,Sankt Martin bei Lofer,Austria,5092,Hotels,3,47.565946,12.70619785,2,http://www.booking.com/hotel/at/gasthof-zur-post-sankt-martin-bei-lofer.en-gb.html,EUR
46741,1783750,Villa Mateja,Put Punte 3,Okrug Donji,Croatia,21223,Bed and breakfasts,3,43.49708771,16.2128508,2,http://www.booking.com/hotel/hr/b-amp-b-mateja.en-gb.html,EUR
46742,1783912,Hotel Maremola,Corso Italia 16,Pietra Ligure,Italy,17027,Hotels,2,44.15063985,8.28749273,2,http://www.booking.com/hotel/it/maremola.en-gb.html,EUR
46743,1783917,Hotel Nemira,"Vasile Alecsandri, Nr.7",Slanic-Moldova,Romania,605500,Hotels,4,46.20813685,26.43848287,2,http://www.booking.com/hotel/ro/nemira-slanic-moldova.en-gb.html,RON
46744,1783967,HomeLike Hotel,Mihoelsa iela 66,Daugavpils,Latvia,,Hotels,4,55.87269741,26.52089695,2,http://www.booking.com/hotel/lv/homelike.en-gb.html,EUR
46745,178402,Steyler Fatima Hotel Congress & Spa,"Praca Luis Kondor, s/n",Fatima,Portugal,,Hotels,4,39.63168823,-8.67719293,2,http://www.booking.com/hotel/pt/verbo-divino.en-gb.html,EUR
46746,178403,Pousada De Viseu,Rua Do Hospital,Viseu,Portugal,,Hotels,4,40.65467626,-7.9125005,2,http://www.booking.com/hotel/pt/pousada-de-viseu.en-gb.html,EUR
46747,178404,Hotel Estalagem Da Pateira,"Rua Da Pateira, No 84",Fermentelos,Portugal,,Hotels,3,40.57177763,-8.51526529,2,http://www.booking.com/hotel/pt/estalagem-da-pateira.en-gb.html,EUR
46748,178406,Hotel Smart,Rua Maestro Lacerda No6,Estoril,Portugal,,Hotels,2,38.70531448,-9.39228728,2,http://www.booking.com/hotel/pt/residencial-smart.en-gb.html,EUR
46749,1784064,Camping Benista,Boulevard Marie Jeanne Bozzi,Porticcio,France,20166,Campsites,4,41.90685269,8.82249716,2,http://www.booking.com/hotel/fr/camping-benista.en-gb.html,EUR
46750,1784072,The Invisible Hotel -- Black & White Room,Juzna trieda 2A,Kosice,Slovakia,,Hotels,3,48.71575038,21.26163175,2,http://www.booking.com/hotel/sk/kosice-story-chapter-002.en-gb.html,EUR
46751,1784088,The Invisible Hotel -- Kosice Modernism,Hlavna 101,Kosice,Slovakia,,Hotels,4,48.72219187,21.25774653,2,http://www.booking.com/hotel/sk/kosice-story-chapter-003.en-gb.html,EUR
46752,1784093,The Invisible Hotel,Hlavna 16,Kosice,Slovakia,,Hotels,4,48.718942,21.2585813,2,http://www.booking.com/hotel/sk/kosice-story-chapter-004.en-gb.html,EUR
46753,1784106,Hotel Tessarin,Piazza Venezia 4,Taglio di Po,Italy,45019,Hotels,3,45.00710869,12.20977235,2,http://www.booking.com/hotel/it/tessarin.en-gb.html,EUR
46754,17842,Hotel Els Arenals,"Felisa Longas, 1 (Urbanizacion Gato Montes)",Sagunto,Spain,46500,Hotels,4,39.68972332,-0.20298421,2,http://www.booking.com/hotel/es/els-arenals.en-gb.html,EUR
46755,1784201,Hotel Diamante,Frazione Macchia  Fraz. di Ferrandina,Ferrandina,Italy,75013,Hotels,3,40.47018902,16.50271811,2,http://www.booking.com/hotel/it/diamante-di-matera.en-gb.html,EUR
46756,1784204,Alexandra Lodge,Alexandra Lodge Inveriscandye Road,Edzell,United Kingdom,,Hotels,4,56.80789948,-2.651619911,5,https://www.agoda.com/en-gb/alexandra-lodge/hotel/edzell-gb.html,GBP
46757,178421,Beleza Serra Guide Hotel,Lugar Do Bairro. N25 Vilar Da Veiga,Geres,Portugal,,Hotels,2,41.6909807,-8.17220807,2,http://www.booking.com/hotel/pt/residencial-beleza-da-serra.en-gb.html,EUR
46758,1784226,Hotel Holiday,Via Alessandro Volta 194 - 196,San Benedetto del Tronto,Italy,63074,Hotels,3,42.93531509,13.891113,2,http://www.booking.com/hotel/it/holiday-san-benedetto-del-tronto.en-gb.html,EUR
46759,1784240,The Royal at Hayfield,The Royal Hotel Market Street,Glossop,United Kingdom,,Hotels,4,53.37947083,-1.945029974,5,https://www.agoda.com/en-gb/the-royal-at-hayfield/hotel/glossop-gb.html,GBP
46760,178426,Hotel Douro Inn,Marechal Carmona,Tabuaco,Portugal,,Hotels,3,41.11665582,-7.56906778,2,http://www.booking.com/hotel/pt/residencial-satelite.en-gb.html,EUR
46761,1784272,Hotel Restaurant De La Roche,LE CHARPENAY,Les Sauvages,France,69170,Hotels,2,45.92817023,4.38867344,2,http://www.booking.com/hotel/fr/restaurant-de-la-roche.en-gb.html,EUR
46762,1784286,Pena Park Hotel,"Rua do Complexo Turistico de Lamelas, 1",Ribeira de Pena,Portugal,,Hotels,4,41.50647387,-7.79830599,2,http://www.booking.com/hotel/pt/pena-park.en-gb.html,EUR
46763,178430,Hotel 4 Estacoes,Av Engo Duarte Pacheco No102,Chaves,Portugal,,Hotels,2,41.73406911,-7.45973691,2,http://www.booking.com/hotel/pt/residencial-4-estacoes.en-gb.html,EUR
46764,1784351,City Hotel Gifhorn,Braunschweigerstr. 20,Gifhorn,Germany,38518,Hotels,2,52.47954144,10.54370055,2,http://www.booking.com/hotel/de/city-gifhorn.en-gb.html,EUR
46765,1784360,Gigli Hotel Salento,Corso leuca,Marina di Pescoluse,Italy,73050,Hotels,3,39.83829288,18.25167217,2,http://www.booking.com/hotel/it/gigli-salento.en-gb.html,EUR
46766,178439,Josefa D Obidos - Hotel,Rua D. Joao De Ornelas,Obidos,Portugal,,Hotels,4,39.36021248,-9.15699184,2,http://www.booking.com/hotel/pt/albergaria-josefadobidos.en-gb.html,EUR
46767,17844,Hotel Genzianella,"Fraz. Saint Jacques, Place de la Grotte 5",Champoluc,Italy,11020,Hotels,2,45.86153594,7.73069769,2,http://www.booking.com/hotel/it/genzianella.en-gb.html,EUR
46768,1784416,Moxy Vienna Airport,Ausfahrtsstrasse 4,Vienna,Austria,1300,Hotels,3,48.12327576,16.5648613,5,https://www.agoda.com/en-gb/moxy-vienna-airport/hotel/vienna-at.html,EUR
46769,1784447,B&B Hotel Marseille La Valentine,ZAC La Valentine Montee du Commandant de Robien,Marseille,France,13011,Hotels,2,43.28837682,5.4814335,2,http://www.booking.com/hotel/fr/b-amp-b-marseille-la-valentine.en-gb.html,EUR
46770,1784450,Hotel Abete Bianco,"Via Paganella, 21A",Andalo,Italy,38010,Hotels,3,46.1637129,11.004059,2,http://www.booking.com/hotel/it/abete-bianco.en-gb.html,EUR
46771,178448,Hotel Camoes,"Largo De Camoes, No38",Ponta Delgada,Portugal,,Hotels,4,37.74089446,-25.6647867,2,http://www.booking.com/hotel/pt/camoes.en-gb.html,EUR
46772,1784486,Valenti rooms,Starceviceva 16/1,Split,Croatia,21000,Bed and breakfasts,4,43.51492931,16.43806693,2,http://www.booking.com/hotel/hr/valenti-rooms.en-gb.html,EUR
46773,178449,Hotel Dom Vasco,Parque 13,Sines,Portugal,,Hotels,4,37.95770192,-8.87521237,2,http://www.booking.com/hotel/pt/dom-vasco.en-gb.html,EUR
46774,178451,Sweet Atlantic Hotel & Spa,"Avenida 25 De Abril, No 21",Figueira da Foz,Portugal,,Hotels,4,40.1506773,-8.86641204,2,http://www.booking.com/hotel/pt/sweet-atlantic-spa.en-gb.html,EUR
46775,178452,Hotel da Rocha,Av. Tomas Cabreira - Praia Da Rocha,Portimao,Portugal,,Hotels,4,37.11898686,-8.53608593,2,http://www.booking.com/hotel/pt/da-rocha.en-gb.html,EUR
46776,178459,Hotel Douro,"Rua Da Meditacao, 71",Porto,Portugal,,Hotels,3,41.15686152,-8.63093622,2,http://www.booking.com/hotel/pt/douro.en-gb.html,EUR
46777,1784593,Gairloch Hotel 'A Bespoke Hotel',Gairloch Hotel,Gairloch,United Kingdom,,Hotels,3,57.722229,-5.686970234,5,https://www.agoda.com/en-gb/gairloch-hotel-a-bespoke-hotel/hotel/gairloch-gb.html,GBP
46778,178462,Palace Hotel & Spa - Termas de Sao Vicente,Termas De Sao Vicente,Pinheiro,Portugal,,Hotels,4,41.11753886,-8.29432905,2,http://www.booking.com/hotel/pt/palace-spa.en-gb.html,EUR
46779,178463,Forte De Sao Francisco Hotel,Forte De Sao Francisco,Chaves,Portugal,,Hotels,4,41.74266731,-7.46963561,2,http://www.booking.com/hotel/pt/forte-de-sao-francisco.en-gb.html,EUR
46780,178468,Noiva do Mar,"Porto Das Barcas, Estrada Do Vale Bravo",Lourinha,Portugal,,Holiday parks,4,39.23758325,-9.33830488,2,http://www.booking.com/hotel/pt/noiva-do-mar-resort.en-gb.html,EUR
46781,178469,Hotel Dom Lourenco,Avenida Antonio Jose Do Vale - Praia Da Areia Branca,Areia Branca,Portugal,,Hotels,2,39.26483286,-9.32874173,2,http://www.booking.com/hotel/pt/residencial-restaurante-dom-lourenco.en-gb.html,EUR
46782,17847,Hotel Cleopatra Palace,"Avenida de las Americas, s/n",Playa de las Americas,Spain,38660,Resorts,4,28.05475906,-16.73119068,2,http://www.booking.com/hotel/es/mare-nostrum.en-gb.html,EUR
46783,178470,Hotel Rural Alves - Casa Alves Torneiros,"Travessa dos Torneiros, N.o 9",Penso,Portugal,,Hotels,4,41.48646699,-8.43357325,2,http://www.booking.com/hotel/pt/alves-rural-casa-alves-de-torneiros-turismo-rural-l-da.en-gb.html,EUR
46784,1784718,Hotel Restaurant Oberwirt,25 Voraner Strasse,Verano,Italy,39010,Hotels,3,46.60470963,11.23178959,5,https://www.agoda.com/en-gb/hotel-restaurant-oberwirt/hotel/verano-it.html,EUR
46785,178472,Graciosa Hotel,Porto Da Barra - Santa Cruz Graciosa,Santa Cruz da Graciosa,Portugal,,Hotels,4,39.08529582,-27.99837291,2,http://www.booking.com/hotel/pt/graciosa-resort-business.en-gb.html,EUR
46786,178473,Aqualuz Troia Lagoa Hotel & Apartments - S.Hotels Collection,Rua Do Choupo,Troia,Portugal,,Resorts,4,38.49118993,-8.90150607,2,http://www.booking.com/hotel/pt/aqualuz-suite-apartamentos-troia-lagoa.en-gb.html,EUR
46787,178488,Boutique Hotel Vivenda Miranda,Rua das Violetas,Lagos,Portugal,,Hotels,4,37.08540638,-8.68232131,2,http://www.booking.com/hotel/pt/romantik-miranda.en-gb.html,EUR
46788,17849,Robinson Club Kyllini Beach,Kastro,Kyllini,Greece,27050,Resorts,4,37.900391,21.11546516,2,http://www.booking.com/hotel/gr/kyllini-beach-resort.en-gb.html,EUR
46789,17850,Bungalows Dona Rosa,"Avenida Alemania, 23",Playa del Ingles,Spain,35100,Holiday parks,2,27.75095848,-15.57391137,2,http://www.booking.com/hotel/es/bungalows-dona-rosa.en-gb.html,EUR
46790,1785042,Dornoch Hotel 'A Bespoke Hotel',Grange Road,Dornoch,United Kingdom,,Hotels,3,57.88119125,-4.022659779,5,https://www.agoda.com/en-gb/dornoch-hotel-a-bespoke-hotel/hotel/dornoch-gb.html,GBP
46791,1785096,Hotel Wieslhof,Rosengartenstrasse 29,Collepietra,Italy,39053,Hotels,3,46.46500711,11.4738974,2,http://www.booking.com/hotel/it/wieslhof.en-gb.html,EUR
46792,1785103,Hotel Kranebitt,Elvaserstrasse 78,Bressanone,Italy,39042,Hotels,3,46.7201968,11.6630778,2,http://www.booking.com/hotel/it/pension-kranebitt.en-gb.html,EUR
46793,1785114,Hotel Paradiso,via Fornace 1,Sarnonico,Italy,38011,Hotels,3,46.42450175,11.17845859,2,http://www.booking.com/hotel/it/paradiso-sarnonico.en-gb.html,EUR
46794,1785150,Camere-Apartament Steyna,"Bulevardul Transilvaniei Nr.3B,C",Alba Iulia,Romania,510005,Hotels,3,46.06933786,23.56236241,2,http://www.booking.com/hotel/ro/aparthotel-steyna.en-gb.html,RON
46795,1785174,Cztery Pory Roku,Piliki 133,Bielsk Podlaski,Poland,,Hotels,3,52.73989715,23.16597394,2,http://www.booking.com/hotel/pl/cztery-pory-roku-bielsk-podlaski.en-gb.html,PLN
46796,1785188,The Pickering Park Hotel,185 Askew Avenue,Kingston upon Hull,United Kingdom,,Hotels,4,53.73688889,-0.398620009,5,https://www.agoda.com/en-gb/the-pickering-park-hotel/hotel/kingston-upon-hull-gb.html,GBP
46797,1785207,Residence Routes du Monde ATC Saint-Francois-Longchamp,Chef-Lieu 1450,La Chambre,France,73130,Hotels,2,45.40713882,6.346469879,5,https://www.agoda.com/en-gb/residence-routes-du-monde-atc-saint-francois-longchamp/hotel/la-chambre-fr.html,EUR
46798,1785258,La Maison de la Tour,Grand Place,La Tour,France,6420,Hotels,3,43.94672681,7.18413269,2,http://www.booking.com/hotel/fr/la-maison-de-la-tour.en-gb.html,EUR
46799,17853,Hotel San Giorgio,Via San Giorgio 10,Bergamo,Italy,24122,Hotels,3,45.68863693,9.66826916,2,http://www.booking.com/hotel/it/san-giorgio-bergamo.en-gb.html,EUR
46800,1785329,Familienhotel Viktoria,Hauptstrasse 293,Ultimo,Italy,39016,Hotels,4,46.54390224,10.99503559,2,http://www.booking.com/hotel/it/familienhotel-viktoria.en-gb.html,EUR
46801,1785390,Hotel Tirol,Tanzgasse 4,Tirolo,Italy,39019,Hotels,3,46.69132457,11.15300115,2,http://www.booking.com/hotel/it/tirol-dorf-tirol.en-gb.html,EUR
46802,1785398,Mobile Home Ljutic,Slanica 1,Biograd na Moru,Croatia,23210,Holiday parks,2,43.92642485,15.45375421,2,https://www.booking.com/hotel/hr/mobile-home-ljutic.en-gb.html,EUR
46803,1785408,Hotel Aurora,"Via dei Gerani, 5 Localita Chiessi",Chiessi,Italy,57030,Hotels,2,42.75897,10.11260035,2,http://www.booking.com/hotel/it/aurora-marciana.en-gb.html,EUR
46804,1785547,Creta Seafront Residences,Stamathioudaki 53,Rethymno Town,Greece,74100,Hotels,3,35.36421725,24.45917918,2,http://www.booking.com/hotel/gr/creta-seafront-residences.en-gb.html,EUR
46805,1785617,Hotel Mellow,"Izvan Regulatsia 1 Pismenovo, Primorsko",Pismenovo,Bulgaria,8289,Hotels,3,42.2177518,27.68160403,2,http://www.booking.com/hotel/bg/mellow-pismenovo.en-gb.html,BGN
46806,1785670,Weingasthaus Wisser,Herrengartenstr.9,Billigheim-Ingenheim,Germany,76831,Hotels,4,49.13421368,8.08349128,2,http://www.booking.com/hotel/de/weingasthaus-wisser.en-gb.html,EUR
46807,17857,Mare Hotel,Via Nizza 89/R,Savona,Italy,17100,Hotels,4,44.29034677,8.45296025,2,http://www.booking.com/hotel/it/mare-savona.en-gb.html,EUR
46808,1785791,Ammos Resort,"Mastichari, Kos",Mastichari,Greece,85302,Resorts,4,36.83518838,27.06058736,2,http://www.booking.com/hotel/gr/ammos-resort.en-gb.html,EUR
46809,1785809,Hotel Rural Fuente del Val,Solana 22,Pradanos de Ojeda,Spain,34486,Hotels,2,42.68098086,-4.34561746,2,http://www.booking.com/hotel/es/fuente-del-val.en-gb.html,EUR
46810,1785837,Hotel SenS,Lubieszyn 11a,Mierzyn,Poland,,Hotels,3,53.45196732,14.380891,2,http://www.booking.com/hotel/pl/sens.en-gb.html,PLN
46811,17859,Hotel Eletto,Via Matteotti 44,Sanremo,Italy,18038,Hotels,3,43.81502863,7.7738893,2,http://www.booking.com/hotel/it/eletto.en-gb.html,EUR
46812,1785980,Hotel Marina,"Viale Adriatico, 15",Fano,Italy,61032,Hotels,3,43.8459709,13.02596892,2,https://www.booking.com/hotel/it/marina-fano.en-gb.html,EUR
46813,1785982,Fabbri's Hotel,via aristotele 30,Cesenatico,Italy,47042,Hotels,2,44.17385896,12.43060483,2,http://www.booking.com/hotel/it/fabbri-39-s.en-gb.html,EUR
46814,1786,Hotel Westminster,27 Promenade des Anglais,Nice,France,6000,Hotels,4,43.69408035,7.256555557,5,https://www.agoda.com/en-gb/hotel-westminster/hotel/nice-fr.html,EUR
46815,178600,Hotel Koronna,Steaua 54,Timisoara,Romania,300449,Hotels,4,45.7195197,21.20494097,2,http://www.booking.com/hotel/ro/koronna.en-gb.html,RON
46816,178601,Hotel Sir Orhideea,Orhideelor 12B,Bucharest,Romania,60071,Hotels,2,44.44684045,26.06128156,2,http://www.booking.com/hotel/ro/sir-orhideea.en-gb.html,RON
46817,17861,Relais & Chateaux Palazzo Seneca,Via Cesare Battisti 12,Norcia,Italy,6046,Hotels,4,42.79263335,13.0921559,2,http://www.booking.com/hotel/it/palazzo-seneca.en-gb.html,EUR
46818,178612,Hotel Magnus Galati,"Otelarilor, Micro.20",Galati,Romania,800098,Hotels,3,45.41195968,28.01387608,2,http://www.booking.com/hotel/ro/magnus-galati.en-gb.html,RON
46819,178613,Golden Tulip Ana Dome Hotel,"129, Observatorului Street",Cluj-Napoca,Romania,400352,Hotels,4,46.75217847,23.57657433,2,http://www.booking.com/hotel/ro/golden-tulip-ana-dome.en-gb.html,RON
46820,1786132,Feevos,"Kanari 20, Moschato",Piraeus,Greece,18344,Hotels,2,37.9478384,23.67377077,2,http://www.booking.com/hotel/gr/feevos.en-gb.html,EUR
46821,1786139,Hotel Isenbutteler Hof,Hauptstrasse 3,Isenbuttel,Germany,38550,Hotels,3,52.43489925,10.57818493,2,http://www.booking.com/hotel/de/isenbutteler-hof.en-gb.html,EUR
46822,178614,Hotel Piemonte,Mihail Saulescu 149,Predeal,Romania,505300,Hotels,4,45.51016647,25.57346284,2,http://www.booking.com/hotel/ro/piemonte.en-gb.html,RON
46823,178615,Contele Vladimir,Reitesti 61,Bran,Romania,507025,Hotels,4,45.520489,25.380062,2,http://www.booking.com/hotel/ro/contele-vladimir.en-gb.html,RON
46824,178617,Vila Casa Alesiv,Str. Ciocirliei 15,Cluj-Napoca,Romania,400619,Hotels,3,46.779719,23.60998392,2,http://www.booking.com/hotel/ro/vila-casa-alesiv.en-gb.html,RON
46825,178619,Hotel Cantemir,Dimitrie Cantemir 13A,Bucharest,Romania,300449,Hotels,3,44.42053433,26.10475749,2,http://www.booking.com/hotel/ro/cantemir.en-gb.html,RON
46826,17862,Hotel Tre Ceri,Via Benamati 6/8,Gubbio,Italy,6024,Hotels,3,43.35344442,12.57591113,2,http://www.booking.com/hotel/it/tre-ceri.en-gb.html,EUR
46827,178620,Hunter Prince Castle & Dracula Hotel,Sterca Sulutiu,Turda,Romania,421012,Hotels,4,46.57245929,23.7872833,2,http://www.booking.com/hotel/ro/hunter-prince-castle-dracula.en-gb.html,RON
46828,178629,Hotel Turist,9 Crinului,Neptun,Romania,905550,Hotels,3,43.8747569,28.59933257,2,http://www.booking.com/hotel/ro/turist.en-gb.html,RON
46829,17863,Hotel Villa Giulia,Lido Di Capoliveri,Porto Azzurro,Italy,57036,Hotels,3,42.7644849,10.35927057,2,http://www.booking.com/hotel/it/villa-giulia-porto-azzurro.en-gb.html,EUR
46830,178631,Hotel Picard,26 Rue De Picardie,Paris,France,75003,Hotels,2,48.86412048,2.363122702,5,https://www.agoda.com/en-gb/hotel-picard/hotel/paris-fr.html,EUR
46831,178632,Hotel Wolf 2,"Str Branului, Nr. 36 bis",Bran,Romania,507025,Hotels,4,45.53893649,25.37533343,2,http://www.booking.com/hotel/ro/wolf.en-gb.html,RON
46832,178633,Hotel Decebal,Str. Trandafirilor nr 14,Neptun,Romania,905550,Hotels,3,43.86721969,28.59751403,2,http://www.booking.com/hotel/ro/decebal.en-gb.html,RON
46833,178638,Hotel Adriatico,Ion Ionescu de la Brad,Timisoara,Romania,305500,Hotels,2,45.77775938,21.24327242,2,http://www.booking.com/hotel/ro/adriatico.en-gb.html,RON
46834,17864,Hotel Miravalle,Piazzetta Del Castello 3,San Miniato,Italy,56028,Hotels,4,43.67962218,10.85086048,2,http://www.booking.com/hotel/it/hotel-miravalle.en-gb.html,EUR
46835,178640,Holiday Inn Express Leeds-East,"2 Aberford Road, Oulton",Woodlesford,United Kingdom,,Hotels,3,53.74549866,-1.451623559,5,https://www.agoda.com/en-gb/holiday-inn-express-leeds-east/hotel/woodlesford-gb.html,GBP
46836,178642,Hotel Hemingway Residence,Str.Mantuleasa 31,Bucharest,Romania,23962,Hotels,3,44.43669097,26.11408755,2,http://www.booking.com/hotel/ro/hemingway-residence.en-gb.html,RON
46837,178643,Hotel Adabelle,Pietii 5,Brasov,Romania,500007,Hotels,3,45.6448976,25.59946954,2,http://www.booking.com/hotel/ro/adabelle.en-gb.html,RON
46838,178647,Hotel Gott,Johann Gott nr 2,Brasov,Romania,500025,Hotels,3,45.6410028,25.58971703,2,http://www.booking.com/hotel/ro/gott.en-gb.html,RON
46839,178649,Hotel Perla,Protopop George Dragomir,Timisoara,Romania,300233,Hotels,4,45.74212353,21.22779608,2,http://www.booking.com/hotel/ro/perla-1-2-3-4.en-gb.html,RON
46840,178650,Hotel Select,Piata 14 Decembrie 1989 nr 2,Iasi,Romania,700123,Hotels,4,47.164888,27.58135378,2,http://www.booking.com/hotel/ro/select.en-gb.html,RON
46841,1786529,Hotel Ristorante da Toni,"Via Romea, 12",Codevigo,Italy,35020,Hotels,2,45.23405839,12.16214418,2,http://www.booking.com/hotel/it/ristorante-da-toni.en-gb.html,EUR
46842,178657,Hotel Pacific,Mihail Kogalniceanu nr.8,Timisoara,Romania,307200,Hotels,3,45.76448152,21.24678612,2,http://www.booking.com/hotel/ro/pacific.en-gb.html,RON
46843,178659,Hotel Alma Spa,Botizului 2/a,Satu Mare,Romania,440108,Hotels,3,47.79907773,22.90051281,2,https://www.booking.com/hotel/ro/almaspa.en-gb.html,RON
46844,17866,"AC Hotel Sants, a Marriott Lifestyle Hotel","Passeig de Sant Antoni, 36-40",Barcelona,Spain,8014,Hotels,4,41.37748885,2.13883638,2,http://www.booking.com/hotel/es/ac-sants.en-gb.html,EUR
46845,178663,Hotel Palas,Mamaia,Mamaia,Romania,900001,Hotels,4,44.2529457,28.61994267,2,https://www.booking.com/hotel/ro/palas.en-gb.html,RON
46846,178664,Hotel Horoscop,Dimitrie Cantemir 2,Bucharest,Romania,40241,Hotels,3,44.42553216,26.10367119,2,http://www.booking.com/hotel/ro/horoscop.en-gb.html,RON
46847,178668,Hotel Union,Bd-ul Tudor Vladimirescu  26,Eforie Nord,Romania,900210,Hotels,3,44.07046691,28.63769889,2,http://www.booking.com/hotel/ro/ten-union.en-gb.html,RON
46848,178669,Hotel Forum,"215A, Gheorghe Doja",Ploiesti,Romania,100176,Hotels,3,44.94629356,26.03432536,2,http://www.booking.com/hotel/ro/forum.en-gb.html,RON
46849,17867,"AC Hotel Sevilla Torneo, a Marriott Lifestyle Hotel","Avenida Juventudes Musicales s/n, Sevilla (esquina con calle Dr. Fedriani)",Seville,Spain,41009,Hotels,4,37.41301636,-5.9839654,2,http://www.booking.com/hotel/es/sevilla-torneo.en-gb.html,EUR
46850,178671,Hello Hotels Gara de Nord,"Calea Grivitei no. 143, sector 1",Bucharest,Romania,10708,Hotels,2,44.44592898,26.0785228,2,http://www.booking.com/hotel/ro/hello-hotels.en-gb.html,RON
46851,178673,Hotel Vanilla,"Eroilor de la Tisa, 57",Timisoara,Romania,300553,Hotels,3,45.74879032,21.24578901,2,http://www.booking.com/hotel/ro/vanilla.en-gb.html,RON
46852,178675,Hotel Excelsior,Str. Romulus nr 36,Timisoara,Romania,300203,Hotels,4,45.74268697,21.21929348,2,http://www.booking.com/hotel/ro/excelsior.en-gb.html,RON
46853,1786829,Hotel San Giorgio,"V.le Dalmazia, 138",Vasto,Italy,66055,Hotels,3,42.09540517,14.72411732,2,https://www.booking.com/hotel/it/san-giorgio-vasto.en-gb.html,EUR
46854,1786912,Sammos Beach Resort,"Str. D13, Nr. FN",Mamaia,Romania,900001,Hotels,3,44.30214778,28.62653822,2,http://www.booking.com/hotel/ro/samoss-beach-resort.en-gb.html,RON
46855,178693,Hotel Posada,"Bd Basarabilor, nr. 27-29",Curtea de Arges,Romania,115300,Hotels,3,45.15231684,24.67575431,2,http://www.booking.com/hotel/ro/posada.en-gb.html,RON
46856,178694,Hotel Ieremia Movila,Calea Movilestilor nr. 459,Sucevita,Romania,727510,Hotels,3,47.77762194,25.70929527,2,http://www.booking.com/hotel/ro/ieremia-movila.en-gb.html,RON
47153,72025,Cairn Hotel,Ripon Road,Harrogate,United Kingdom,,Hotels,3,53.99866486,-1.54676199,5,https://www.agoda.com/en-gb/cairn-hotel/hotel/harrogate-gb.html,GBP
46857,178702,Vigo Hotel,28th Independentei Street,Ploiesti,Romania,100028,Hotels,4,44.92976384,26.02675617,2,http://www.booking.com/hotel/ro/vigohotel.en-gb.html,RON
46858,1787143,Hotel Celanova,"Celso Emilio Ferreiro, 7",Celanova,Spain,32800,Hotels,2,42.1532106,-7.95649039,2,http://www.booking.com/hotel/es/celanova.en-gb.html,EUR
46859,178717,Hotel Rural Quinta Do Pego,En 222 - Valenca Do Douro,Tabuaco,Portugal,,Hotels,4,41.16173027,-7.57060468,2,http://www.booking.com/hotel/pt/rural-quinta-do-pego.en-gb.html,EUR
46860,178718,Hotel Lusitano,"Rua Gil Vicente, 4",Golega,Portugal,,Hotels,4,39.40271481,-8.48834127,2,http://www.booking.com/hotel/pt/lusitano.en-gb.html,EUR
46861,1787226,Kemp Otava Strakonice,Horni Podskali 124,Strakonice,Czech Republic,,Campsites,3,49.25892867,13.8879467,2,http://www.booking.com/hotel/cz/kemp-otava-strakonice.en-gb.html,EUR
46862,1787258,King Lodge,"50, Iakinthon, Psichiko",Athens,Greece,15452,Hotels,4,37.99979998,23.77031837,2,http://www.booking.com/hotel/gr/king-athens.en-gb.html,EUR
46863,17873,Pollera,ul. Szpitalna 30,Krakow,Poland,,Hotels,3,50.06345481,19.94169429,2,http://www.booking.com/hotel/pl/pollerakrakow.en-gb.html,PLN
46864,1787319,Hotel Centrale,Piazza Beata Beatrice 15,Este,Italy,35042,Hotels,3,45.2286364,11.6561286,2,http://www.booking.com/hotel/it/centrale-este.en-gb.html,EUR
46865,17875,Hotel Vedig,Via Vedich 14,Santa Caterina Valfurva,Italy,23030,Hotels,4,46.41284499,10.49068674,2,http://www.booking.com/hotel/it/vedig.en-gb.html,EUR
46866,178751,Imago Boutique Hotel,Mamaia Resort,Mamaia,Romania,900001,Hotels,4,44.25059414,28.61837357,2,http://www.booking.com/hotel/ro/california.en-gb.html,RON
46867,1787532,Family Hotel Amarin,Val de Lesso 5,Rovinj,Croatia,52210,Hotels,4,45.10216082,13.62472899,2,http://www.booking.com/hotel/hr/family-amarin.en-gb.html,EUR
46868,178754,Vila Gale Coimbra,"Rua Abel Dias Urbano, 20",Coimbra,Portugal,,Hotels,4,40.21428005,-8.43592823,2,http://www.booking.com/hotel/pt/vila-gale-coimbra.en-gb.html,EUR
46869,1787575,B&B Hortense,Lavendee 7,Koekelare,Belgium,8680,Bed and breakfasts,4,51.0975939,2.93826557,2,http://www.booking.com/hotel/be/b-amp-b-hortense.en-gb.html,EUR
46870,178759,Luna Miramar Club,"Rua Do Pacifico, Lote 24",Albufeira,Portugal,,Resorts,4,37.08971561,-8.24065804,2,https://www.booking.com/hotel/pt/luna-perola-do-algarve.en-gb.html,EUR
46871,1787608,Le Petit Palais D'Aglae,route de Murs,Gordes,France,84220,Hotels,4,43.92469559,5.20460129,2,http://www.booking.com/hotel/fr/petit-palais-d-aglae.en-gb.html,EUR
46872,178766,Hotel Olimp,"str. Observatorului, nr. 82-86",Cluj-Napoca,Romania,400432,Hotels,3,46.75486517,23.58498037,2,http://www.booking.com/hotel/ro/olimp.en-gb.html,RON
46873,178767,Hotel Paradis,"Ciocarliei, 47",Cluj-Napoca,Romania,400619,Hotels,4,46.78005329,23.61342251,2,http://www.booking.com/hotel/ro/paradis.en-gb.html,RON
46874,178768,Indiana Hotel,Basota Nr .2,Iasi,Romania,700714,Hotels,3,47.16552262,27.59075761,2,http://www.booking.com/hotel/ro/indiana.en-gb.html,RON
46875,178769,Hotel Top Central,"10 Hagiului St, District 3",Bucharest,Romania,30642,Hotels,2,44.43247889,26.12214424,2,http://www.booking.com/hotel/ro/tripoli.en-gb.html,RON
46876,1787694,La Vega,Via Occhio Marino 10,Capri,Italy,80073,Hotels,4,40.54843939,14.24779719,2,http://www.booking.com/hotel/it/la-vega.en-gb.html,EUR
46877,71672,Hotel Heldt,Friedhofstrasse 41,Bremen,Germany,28213,Hotels,3,53.09131844,8.85727309,2,http://www.booking.com/hotel/de/heldt.en-gb.html,EUR
46878,71673,Heldt Dependance,Friedhofstrasse 41,Bremen,Germany,28213,Hotels,2,53.09133736,8.85715239,2,http://www.booking.com/hotel/de/heldt-dependance.en-gb.html,EUR
46879,7167381,Alda & Amelia,Via Brescia 42,Cattolica,Italy,47841,Hotels,3,43.96670151,12.73596954,5,https://www.agoda.com/en-gb/alda-amelia/hotel/cattolica-it.html,EUR
46880,7167463,Hotel Baby,Viale XXV Marzo 1831 N 5,Rimini,Italy,47922,Hotels,4,44.07902145,12.55136967,5,https://www.agoda.com/en-gb/hotel-baby/hotel/rimini-it.html,EUR
46881,7167475,Villa Stella,,Locri,Italy,89044,Hotels,3,38.24649811,16.22629929,5,https://www.agoda.com/en-gb/villa-stella/hotel/locri-it.html,EUR
46882,71675,Hotel de Geneve,"1, place Isaac-Mercier",Geneva,Switzerland,1201,Hotels,2,46.2064704,6.14000022,2,http://www.booking.com/hotel/ch/de-geneve.en-gb.html,CHF
46883,71676,Sunstar Hotel Lenzerheide,Voa Sporz 8,Lenzerheide,Switzerland,7078,Hotels,4,46.72864488,9.55413043,2,http://www.booking.com/hotel/ch/sunstar-lenzerheide.en-gb.html,CHF
46884,71677,Sunstar Hotel Wengen,Dorfstrasse,Wengen,Switzerland,3823,Hotels,4,46.60624024,7.92097896,2,http://www.booking.com/hotel/ch/sunstar-wengen.en-gb.html,CHF
46885,71678,Sunstar Hotel & SPA Grindelwald,Dorfstrasse 168,Grindelwald,Switzerland,3818,Hotels,4,46.6238978,8.04202974,2,http://www.booking.com/hotel/ch/sunstar-grindelwald.en-gb.html,CHF
46886,7168474,Studio Novi Vinodolski 16920a,,Novi Vinodolski,Croatia,51250,Hotels,3,45.13563156,14.77908039,5,https://www.agoda.com/en-gb/studio-novi-vinodolski-16920a/hotel/novi-vinodolski-hr.html,EUR
46887,71687,Designhotel UberFluss,Langenstr. 72,Bremen,Germany,28195,Hotels,4,53.07864901,8.79906714,2,http://www.booking.com/hotel/de/designhotel-uberfluss.en-gb.html,EUR
46888,71690,Zum Roten Baren,Oberlinden 12,Freiburg im Breisgau,Germany,79098,Hotels,4,47.99343545,7.85388619,2,http://www.booking.com/hotel/de/zum-roten-baren.en-gb.html,EUR
46889,71696,Hotel Wakenitzblick,Augustenstr. 30,Lubeck,Germany,23564,Hotels,2,53.86230547,10.70175648,2,http://www.booking.com/hotel/de/wakenitzblick.en-gb.html,EUR
46890,7169695,Villqa Flavia,,Ispica,Italy,97014,Hotels,3,36.72610092,14.9435997,5,https://www.agoda.com/en-gb/villqa-flavia/hotel/ispica-it.html,EUR
46891,7169758,HOTEL MYRTUS,VIA EDUARDO DE FILIPPO,Agropoli,Italy,84030,Hotels,4,40.34399033,14.97990036,5,https://www.agoda.com/en-gb/hotel-myrtus/hotel/agropoli-it.html,EUR
46892,7169781,Villa 6 Es,,Stintino,Italy,7040,Hotels,3,40.91139984,8.208880425,5,https://www.agoda.com/en-gb/villa-6-es/hotel/stintino-it.html,EUR
46893,717,Drake Longchamp Swiss Quality Hotel,7 Rue Butini,Geneva,Switzerland,1202,Hotels,3,46.21541977,6.149710178,5,https://www.agoda.com/en-gb/drake-longchamp-swiss-quality-hotel/hotel/geneva-ch.html,CHF
46894,71701,Lohmann's Kapeller Hof,Kapellerweg 1,Langenfeld,Germany,40764,Hotels,3,51.12252189,6.98553905,2,http://www.booking.com/hotel/de/lohmann-s-kapeller-hof.en-gb.html,EUR
46895,717010,Servatur Waikiki,"Avenida Gran Canaria, 20",Playa del Ingles,Spain,35100,Hotels,4,27.76327137,-15.57162263,2,http://www.booking.com/hotel/es/servatur-waikiki.en-gb.html,EUR
46896,717017,Melia Isla Canela,"Avenida de la Mojarra, s/n",Isla Canela,Spain,21470,Hotels,4,37.1862,-7.336,2,http://www.booking.com/hotel/es/melia-atlantico-isla-canela.en-gb.html,EUR
46897,717021,R2 Hotel Pajara Beach,"Punta del Roquito, s/n",Costa Calma,Spain,35627,Hotels,4,28.1495,-14.231,2,http://www.booking.com/hotel/es/r2-pajara-beach.en-gb.html,EUR
46898,71703,Landhotel Behre,Zum Grossen Freien 3,Lehrte,Germany,31275,Hotels,3,52.36403241,9.90973234,2,http://www.booking.com/hotel/de/landhotel-behre.en-gb.html,EUR
46899,71708,Akademiehotel Jena,Am Stadion 1,Jena,Germany,7749,Hotels,2,50.91441012,11.58843577,2,http://www.booking.com/hotel/de/thuringer-sozialakademie-tagungshotel.en-gb.html,EUR
46900,71709,Das Stadtidyll,Freudenthalstrasse 15,Rotenburg an der Wumme,Germany,27356,Hotels,3,53.10868354,9.41890955,2,http://www.booking.com/hotel/de/das-stadtidyll.en-gb.html,EUR
46901,717091,Hotel Cabo Gata,Juegos del Argel,Retamar,Spain,4131,Hotels,4,36.83710411,-2.31664185,2,http://www.booking.com/hotel/es/ath-cabo-de-gata.en-gb.html,EUR
46902,7170966,Three-Bedroom Holiday Home in Klis,,Kastela,Croatia,21231,Hotels,4,43.55329895,16.5326004,5,https://www.agoda.com/en-gb/three-bedroom-holiday-home-in-klis/hotel/kastela-hr.html,EUR
46903,7170979,Family friendly house with a swimming pool Kricke (Zagora) - 16869,,Donje Selo,Croatia,22320,Hotels,3,43.83708954,16.19025993,5,https://www.agoda.com/en-gb/family-friendly-house-with-a-swimming-pool-kricke-zagora-16869/hotel/donje-selo-hr.html,EUR
46904,7170995,House Petra,,Donje Selo,Croatia,22320,Hotels,3,43.86320877,16.0796299,5,https://www.agoda.com/en-gb/house-petra/hotel/donje-selo-hr.html,EUR
46905,717104,The Angel Hotel,Market Place,Coleford,United Kingdom,,Hotels,3,51.79367065,-2.617350101,5,https://www.agoda.com/en-gb/the-angel-hotel/hotel/coleford-gb.html,GBP
46906,717107,The Gun Lodge Hotel,High Street,Ardersier,United Kingdom,,Hotels,3,57.57218933,-4.038990021,5,https://www.agoda.com/en-gb/the-gun-lodge-hotel/hotel/ardersier-gb.html,GBP
46907,7171282,Top-Hotel ESPERANTO - Selce,Emila Antica 24,Selce,Croatia,51266,Hotels,3,45.1593399,14.71755981,5,https://www.agoda.com/en-gb/top-hotel-esperanto-selce/hotel/selce-hr.html,EUR
46908,71713,Hotel Rossli,Hauptstrasse 10,Interlaken,Switzerland,3800,Hotels,2,46.68577535,7.84903541,2,http://www.booking.com/hotel/ch/rossli-interlaken.en-gb.html,CHF
46909,71715,Hotel Am Helmwartsturm,Am Helmwartsturm 4-6,Andernach,Germany,56626,Hotels,3,50.43834327,7.39975199,2,http://www.booking.com/hotel/de/restaurant-am-helmwartsturm.en-gb.html,EUR
46910,7171668,Three-Bedroom Holiday Home in Polje,,Silo,Croatia,51515,Hotels,4,45.13430023,14.64529991,5,https://www.agoda.com/en-gb/three-bedroom-holiday-home-in-polje/hotel/silo-hr.html,EUR
46911,7171674,Seaside holiday house Mastrinka (Ciovo) - 16779,,Mastrinka,Croatia,21220,Hotels,3,43.51280975,16.28068924,5,https://www.agoda.com/en-gb/seaside-holiday-house-mastrinka-ciovo-16779/hotel/mastrinka-hr.html,EUR
46912,7171676,Studio Senj 16753a,,Senj,Croatia,53270,Hotels,3,45.00151825,14.89883041,5,https://www.agoda.com/en-gb/studio-senj-16753a/hotel/senj-hr.html,EUR
46913,71717,Flair Hotel Deutsches Haus,Friedensstrasse 91,Arendsee,Germany,39619,Hotels,4,52.8822504,11.48924232,2,http://www.booking.com/hotel/de/flair-deutsches-haus.en-gb.html,EUR
46914,71724,Landhotel Combecher,Kurhessenstrasse 32,Neukirchen,Germany,34626,Hotels,3,50.86898076,9.3440377,2,http://www.booking.com/hotel/de/landhotel-combecher.en-gb.html,EUR
46915,7172581,Babbelaar 14,,Lauwersoog,Netherlands,,Hotels,4,53.40140152,6.213290215,5,https://www.agoda.com/en-gb/babbelaar-14/hotel/lauwersoog-nl.html,EUR
46916,7172592,Roode Hoofd 6,,Lauwersoog,Netherlands,,Hotels,4,53.3993988,6.216080189,5,https://www.agoda.com/en-gb/roode-hoofd-6/hotel/lauwersoog-nl.html,EUR
46917,7172593,Babbelaar 15,,Lauwersoog,Netherlands,,Hotels,4,53.40140152,6.213290215,5,https://www.agoda.com/en-gb/babbelaar-15/hotel/lauwersoog-nl.html,EUR
46918,71728,Hotel Weyer,Wolfgang-Muller-Str. 10,Bad Neuenahr-Ahrweiler,Germany,53474,Hotels,3,50.54500385,7.1332866,2,http://www.booking.com/hotel/de/weyer.en-gb.html,EUR
46919,7173,Hotel Royal Continental,"38/44, Partenope street",Naples,Italy,80121,Hotels,4,40.82997187,14.24755251,5,https://www.agoda.com/en-gb/hotel-royal-continental/hotel/naples-it.html,EUR
46920,71730,Hotel Weisses Haus,Kurhausstrasse 11a,Bad Kissingen,Germany,97688,Hotels,4,50.19536368,10.07830516,2,http://www.booking.com/hotel/de/weisses-haus.en-gb.html,EUR
46921,71731,Hotel Deutsche Eiche,Bahnhofstrasse 16,Northeim,Germany,37154,Hotels,2,51.70515241,9.99497294,2,http://www.booking.com/hotel/de/deutsche-eiche-northeim.en-gb.html,EUR
46922,7173190,MartaHotel,plac Dominikanski 130,Wroclaw,Poland,,Hotels,4,51.10900879,17.03964996,5,https://www.agoda.com/en-gb/martahotel/hotel/wroclaw-pl.html,EUR
46923,7173195,My Lake Hotel,23 Gaspar Andras utca,Siofok,Hungary,8621,Hotels,3,46.88935852,17.96149063,5,https://www.agoda.com/en-gb/my-lake-hotel/hotel/siofok-hu.html,EUR
46924,7173200,Three-Bedroom Holiday Home in Szczytno,,Piece,Poland,,Hotels,4,53.5984993,20.91040039,5,https://www.agoda.com/en-gb/three-bedroom-holiday-home-in-szczytno/hotel/piece-pl.html,EUR
46925,7173372,Hotel Fafense,Largo Ferreira de Melo 133 A 143,Fafe,Portugal,,Hotels,3,41.45207977,-8.168379784,5,https://www.agoda.com/en-gb/hotel-fafense/hotel/fafe-pt.html,EUR
46926,7173406,Lido Palace Hotel Baveno,Via Sempione 30,Belgirate,Italy,28831,Hotels,4,45.89933014,8.509599686,5,https://www.agoda.com/en-gb/lido-palace-hotel-baveno/hotel/belgirate-it.html,EUR
46927,7173428,Hotel le Fenil,rue saint hadelin 27,Chaudfontaine,Belgium,5561,Hotels,3,50.22977829,5.005189896,5,https://www.agoda.com/en-gb/hotel-le-fenil/hotel/chaudfontaine-be.html,EUR
46928,7173439,Complex Silva,9A Strada Petricani,Bucharest,Romania,23841,Hotels,4,44.47114944,26.12120056,5,https://www.agoda.com/en-gb/complex-silva/hotel/bucharest-ro.html,EUR
46929,7173469,Roode Hoofd 14,,Lauwersoog,Netherlands,,Hotels,4,53.3995018,6.217299938,5,https://www.agoda.com/en-gb/roode-hoofd-14/hotel/lauwersoog-nl.html,EUR
46930,7173492,De Punt 20,,Lauwersoog,Netherlands,,Hotels,4,53.40200043,6.211520195,5,https://www.agoda.com/en-gb/de-punt-20/hotel/lauwersoog-nl.html,EUR
46931,71736,Hotel Sonne,Bergmannsweg 1,Seiffen,Germany,9548,Hotels,3,50.64708286,13.45578969,2,http://www.booking.com/hotel/de/hotel-sonne.en-gb.html,EUR
46932,71737,Spreewaldhotel Stephanshof,Lehnigksberger Weg 1,Lubben,Germany,15907,Hotels,3,51.94523871,13.8896209,2,http://www.booking.com/hotel/de/spreewaldhotel-stephanshof.en-gb.html,EUR
46933,7173758,Three-Bedroom Holiday Home in Mansarp,,Mangsbo,Sweden,,Hotels,4,57.58509827,13.92029953,5,https://www.agoda.com/en-gb/three-bedroom-holiday-home-in-mansarp/hotel/mangsbo-se.html,SEK
46934,7173809,Two-Bedroom Holiday Home in Stepnica,,Szczecin,Poland,,Hotels,3,53.72299957,14.55220032,5,https://www.agoda.com/en-gb/two-bedroom-holiday-home-in-stepnica/hotel/szczecin-pl.html,EUR
46935,7173816,Two-Bedroom Holiday Home in Poznan,,Poznan,Poland,,Hotels,2,52.46630096,16.79470062,5,https://www.agoda.com/en-gb/two-bedroom-holiday-home-in-poznan/hotel/poznan-pl.html,EUR
46936,7174098,Hotel la Conchiglia,Loc. Cavoli Campo nell'Elba,Campo nell'Elba,Italy,57034,Hotels,2,42.73725128,10.18505955,5,https://www.agoda.com/en-gb/hotel-la-conchiglia/hotel/campo-nell-elba-it.html,EUR
46937,7174104,Concept Terrace Hotel,Via Barberini 50,Rome,Italy,187,Hotels,4,41.90457153,12.49199963,5,https://www.agoda.com/en-gb/concept-terrace-hotel/hotel/rome-it.html,EUR
46938,7174161,HOTEL ELIS,19 Via Milano,Gatteo,Italy,47043,Hotels,3,44.1721611,12.43665028,5,https://www.agoda.com/en-gb/hotel-elis/hotel/gatteo-it.html,EUR
46939,7174174,Villa Blais,,Marina di Ragusa,Italy,97010,Hotels,3,36.78979874,14.55630016,5,https://www.agoda.com/en-gb/villa-blais/hotel/marina-di-ragusa-it.html,EUR
46940,7174185,La Plage,Strada Provinciale 81,Sorso,Italy,7037,Hotels,4,40.82421875,8.544710159,5,https://www.agoda.com/en-gb/la-plage/hotel/sorso-it.html,EUR
46941,71742,Hotel Breggers Schwanen 4*** Hochtal SPA,Todtmooserstrasse 17,Bernau im Schwarzwald,Germany,79872,Hotels,4,47.79024702,8.05094853,2,http://www.booking.com/hotel/de/schwarzwaldgasthof-schwanen.en-gb.html,EUR
46942,7174207,COMPLEX TIRIGHINA,strada brailei 290,Galati,Romania,800291,Hotels,3,45.40882111,27.9963398,5,https://www.agoda.com/en-gb/complex-tirighina/hotel/galati-ro.html,EUR
46943,7174494,S. Rocco dimora tra ulivi e M.,,Zoagli,Italy,16030,Hotels,4,44.33929825,9.276329994,5,https://www.agoda.com/en-gb/s-rocco-dimora-tra-ulivi-e-m/hotel/zoagli-it.html,EUR
46944,7174521,Villa blu,,Alghero,Italy,7041,Hotels,3,40.56529999,8.350560188,5,https://www.agoda.com/en-gb/villa-blu/hotel/alghero-it.html,EUR
46945,7174576,Comfort Hotel Arlanda Airport,Tornvagen 9,Arlanda,Sweden,,Hotels,4,59.6497612,17.92378044,5,https://www.agoda.com/en-gb/comfort-hotel-arlanda-airport/hotel/arlanda-se.html,SEK
46946,71746,Landgasthof Hotel Gentner,Bregenzer Strasse 31,Nurnberg,Germany,90475,Hotels,4,49.39647345,11.17418334,2,http://www.booking.com/hotel/de/landgasthof-gentner.en-gb.html,EUR
46947,7174677,Three-Bedroom Holiday Home in Sant'Angelo Romano,,Sant'Angelo Romano,Italy,10,Hotels,3,42.02170181,12.70969963,5,https://www.agoda.com/en-gb/three-bedroom-holiday-home-in-sant-angelo-romano/hotel/sant-angelo-romano-it.html,EUR
46948,71747,Hotel Erber,Freisinger Strasse 83,Ismaning,Germany,85737,Hotels,3,48.25287049,11.69427842,2,http://www.booking.com/hotel/de/gasthof-erber.en-gb.html,EUR
46949,7174870,Villa Sunrise,,Mazzarino,Italy,97010,Hotels,3,36.792099,14.56599998,5,https://www.agoda.com/en-gb/villa-sunrise/hotel/mazzarino-it.html,EUR
46950,7175037,TH Courmayeur,Localita Entreves SS26,Morgex,Italy,11013,Hotels,4,45.76042938,7.017129898,5,https://www.agoda.com/en-gb/th-courmayeur-des-alpes-hotel/hotel/morgex-it.html,EUR
46951,717602,Hotel Tina,"Ljubljanska Ulica 17, Brezje",Samobor,Croatia,10431,Hotels,3,45.79677522,15.78774814,5,https://www.agoda.com/en-gb/hotel-tina/hotel/samobor-hr.html,EUR
46952,7176392,Rifugio Bellavista,frazione di poira 21civo,Civo,Italy,23010,Hotels,2,46.16001129,9.568610191,5,https://www.agoda.com/en-gb/rifugio-bellavista/hotel/civo-it.html,EUR
46953,7176398,Hotel Roxy,Viale Italia 222,Cervia,Italy,48015,Hotels,3,44.24066925,12.37026024,5,https://www.agoda.com/en-gb/hotel-roxy/hotel/cervia-it.html,EUR
46954,71766,Krauterhotel Edelweiss,Bahnstation Rigi Staffelhohe,Rigi Kaltbad,Switzerland,6356,Hotels,3,47.04828638,8.46373737,2,http://www.booking.com/hotel/ch/edelweiss-rigi.en-gb.html,CHF
46955,71767,Hotel Am Kuhbogen,Marienstr. 88,Hof,Germany,95028,Hotels,3,50.31293661,11.91172533,2,http://www.booking.com/hotel/de/am-kuhbogen.en-gb.html,EUR
46956,71773,Vitalotel Roonhof,Roonstrasse 9-13,Bad Salzuflen,Germany,32105,Hotels,4,52.08726635,8.74416351,2,http://www.booking.com/hotel/de/vitalotel-roonhof.en-gb.html,EUR
46957,71776,Hotel AMENITY,Passauerstrasse 28,Munich,Germany,81369,Hotels,3,48.11391512,11.53356716,2,http://www.booking.com/hotel/de/amenity-arirang.en-gb.html,EUR
46958,7177743,Babbelaar 2,,Lauwersoog,Netherlands,,Hotels,4,53.40179825,6.212639809,5,https://www.agoda.com/en-gb/babbelaar-2/hotel/lauwersoog-nl.html,EUR
46959,7177744,Roode Hoofd 1,,Lauwersoog,Netherlands,,Hotels,4,53.39979935,6.215390205,5,https://www.agoda.com/en-gb/roode-hoofd-1/hotel/lauwersoog-nl.html,EUR
46960,7177745,De Punt 13,,Lauwersoog,Netherlands,,Hotels,4,53.40250015,6.210410118,5,https://www.agoda.com/en-gb/de-punt-13/hotel/lauwersoog-nl.html,EUR
46961,7177746,Robbengat 72,,Lauwersoog,Netherlands,,Hotels,2,53.40019989,6.215889931,5,https://www.agoda.com/en-gb/robbengat-72/hotel/lauwersoog-nl.html,EUR
46962,7177747,De Punt 18,,Lauwersoog,Netherlands,,Hotels,4,53.40219879,6.211239815,5,https://www.agoda.com/en-gb/de-punt-18/hotel/lauwersoog-nl.html,EUR
46963,7177748,Westgat 10,,Lauwersoog,Netherlands,,Hotels,4,53.40100098,6.213759899,5,https://www.agoda.com/en-gb/westgat-10/hotel/lauwersoog-nl.html,EUR
46964,71778,Kurhotel Pyramide Bad Windsheim,Erkenbrechtallee 6,Bad Windsheim,Germany,91438,Hotels,4,49.51219394,10.41390717,2,http://www.booking.com/hotel/de/pyramide-bad-windsheim.en-gb.html,EUR
46965,7177889,De Punt 16,,Lauwersoog,Netherlands,,Hotels,4,53.40230179,6.210969925,5,https://www.agoda.com/en-gb/de-punt-16/hotel/lauwersoog-nl.html,EUR
46966,7177890,De Punt 24,,Lauwersoog,Netherlands,,Hotels,4,53.40269852,6.211120129,5,https://www.agoda.com/en-gb/de-punt-24/hotel/lauwersoog-nl.html,EUR
46967,7177891,Robbengat 85,,Lauwersoog,Netherlands,,Hotels,3,53.40090179,6.216249943,5,https://www.agoda.com/en-gb/robbengat-85/hotel/lauwersoog-nl.html,EUR
46968,71782,Hotel Sternen,St. Gallerstr. 72,Raterschen,Switzerland,8352,Hotels,3,47.497895,8.799476,2,http://www.booking.com/hotel/ch/sternen-winterthur.en-gb.html,CHF
